{
  "version": 0.6,
  "generator": "Overpass API 0.7.62.5 1bd436f1",
  "osm3s": {
    "timestamp_osm_base": "2025-03-21T21:23:32Z",
    "timestamp_areas_base": "2024-12-31T00:49:33Z",
    "copyright": "The data included in this document is from www.openstreetmap.org. The data is made available under ODbL."
  },
  "elements": [

{
  "type": "node",
  "id": 358854961,
  "lat": 37.5511111,
  "lon": -122.0388889,
  "tags": {
    "addr:city": "Newark",
    "addr:housenumber": "35660",
    "addr:postcode": "94560",
    "addr:street": "Cedar Boulevard",
    "amenity": "place_of_worship",
    "denomination": "lutheran",
    "ele": "8",
    "gnis:feature_id": "2087392",
    "name": "Holy Redeemer Lutheran Church",
    "religion": "christian"
  }
},
{
  "type": "node",
  "id": 595965589,
  "lat": 32.8266790,
  "lon": -117.2094480,
  "tags": {
    "addr:city": "San Diego",
    "addr:country": "US",
    "addr:housenumber": "3563",
    "addr:postcode": "92117",
    "addr:street": "Jemez Drive",
    "source": "SanGIS Addresses Public Domain (http://www.sangis.org/)"
  }
},
{
  "type": "node",
  "id": 595966323,
  "lat": 32.8089470,
  "lon": -117.1613640,
  "tags": {
    "addr:city": "San Diego",
    "addr:country": "US",
    "addr:housenumber": "3563",
    "addr:postcode": "92111",
    "addr:street": "Armstrong Street",
    "source": "SanGIS Addresses Public Domain (http://www.sangis.org/)"
  }
},
{
  "type": "node",
  "id": 595970496,
  "lat": 32.7434410,
  "lon": -117.1017220,
  "tags": {
    "addr:city": "San Diego",
    "addr:country": "US",
    "addr:housenumber": "3563",
    "addr:postcode": "92105",
    "addr:street": "43rd Street",
    "source": "SanGIS Addresses Public Domain (http://www.sangis.org/)"
  }
},
{
  "type": "node",
  "id": 595970694,
  "lat": 32.7431230,
  "lon": -117.1393180,
  "tags": {
    "addr:city": "San Diego",
    "addr:country": "US",
    "addr:housenumber": "3564",
    "addr:postcode": "92104",
    "addr:street": "Texas Street",
    "source": "SanGIS Addresses Public Domain (http://www.sangis.org/)"
  }
},
{
  "type": "node",
  "id": 595970963,
  "lat": 33.1735930,
  "lon": -117.2973130,
  "tags": {
    "addr:country": "US",
    "addr:housenumber": "3566",
    "addr:street": "Harwich Drive",
    "source": "SanGIS Addresses Public Domain (http://www.sangis.org/)"
  }
},
{
  "type": "node",
  "id": 595970982,
  "lat": 32.6705990,
  "lon": -117.0197630,
  "tags": {
    "addr:city": "Bonita",
    "addr:country": "US",
    "addr:housenumber": "3564",
    "addr:postcode": "91902",
    "addr:street": "Frisbie Street",
    "source": "SanGIS Addresses Public Domain (http://www.sangis.org/)"
  }
},
{
  "type": "node",
  "id": 595971562,
  "lat": 32.7490495,
  "lon": -117.2175138,
  "tags": {
    "addr:city": "San Diego",
    "addr:housenumber": "3568",
    "addr:postcode": "92110",
    "addr:street": "Larga Circle",
    "source": "SanGIS Addresses Public Domain (http://www.sangis.org/)"
  }
},
{
  "type": "node",
  "id": 595972401,
  "lat": 33.0804580,
  "lon": -117.2232020,
  "tags": {
    "addr:country": "US",
    "addr:housenumber": "3562",
    "addr:street": "Calle Palmito",
    "source": "SanGIS Addresses Public Domain (http://www.sangis.org/)"
  }
},
{
  "type": "node",
  "id": 595973680,
  "lat": 33.0039870,
  "lon": -116.5838220,
  "tags": {
    "addr:city": "Julian",
    "addr:country": "US",
    "addr:housenumber": "35615",
    "addr:postcode": "92036",
    "addr:street": "Mountain Circle Drive",
    "source": "SanGIS Addresses Public Domain (http://www.sangis.org/)"
  }
},
{
  "type": "node",
  "id": 595974085,
  "lat": 32.7300760,
  "lon": -117.2353830,
  "tags": {
    "addr:city": "San Diego",
    "addr:housenumber": "3567",
    "addr:postcode": "92106",
    "addr:street": "Garrison Street",
    "source": "SanGIS Addresses Public Domain (http://www.sangis.org/)"
  }
},
{
  "type": "node",
  "id": 595974541,
  "lat": 33.2224870,
  "lon": -117.3139530,
  "tags": {
    "addr:country": "US",
    "addr:housenumber": "356",
    "addr:street": "Camino Parque",
    "source": "SanGIS Addresses Public Domain (http://www.sangis.org/)"
  }
},
{
  "type": "node",
  "id": 595987823,
  "lat": 32.9395360,
  "lon": -117.2377240,
  "tags": {
    "addr:city": "San Diego",
    "addr:housenumber": "3561",
    "addr:postcode": "92130",
    "addr:street": "Caminito Carmel Landing",
    "source": "SanGIS Addresses Public Domain (http://www.sangis.org/)"
  }
},
{
  "type": "node",
  "id": 595988255,
  "lat": 32.7430950,
  "lon": -117.1274690,
  "tags": {
    "addr:city": "San Diego",
    "addr:country": "US",
    "addr:housenumber": "3562",
    "addr:postcode": "92104",
    "addr:street": "31st Street",
    "source": "SanGIS Addresses Public Domain (http://www.sangis.org/)"
  }
},
{
  "type": "node",
  "id": 595989236,
  "lat": 33.2090150,
  "lon": -117.3417660,
  "tags": {
    "addr:city": "Oceanside",
    "addr:country": "US",
    "addr:housenumber": "3568",
    "addr:postcode": "92054",
    "addr:street": "Seafarer Drive",
    "source": "SanGIS Addresses Public Domain (http://www.sangis.org/)"
  }
},
{
  "type": "node",
  "id": 595989252,
  "lat": 32.7434500,
  "lon": -117.1897630,
  "tags": {
    "addr:city": "San Diego",
    "addr:housenumber": "3560",
    "addr:postcode": "92110",
    "addr:street": "Wright Street",
    "source": "SanGIS Addresses Public Domain (http://www.sangis.org/)"
  }
},
{
  "type": "node",
  "id": 595990310,
  "lat": 32.7432540,
  "lon": -117.0958410,
  "tags": {
    "addr:city": "San Diego",
    "addr:country": "US",
    "addr:housenumber": "3560",
    "addr:postcode": "92105",
    "addr:street": "46th Street",
    "source": "SanGIS Addresses Public Domain (http://www.sangis.org/)"
  }
},
{
  "type": "node",
  "id": 595994164,
  "lat": 32.7434180,
  "lon": -117.0980200,
  "tags": {
    "addr:city": "San Diego",
    "addr:country": "US",
    "addr:housenumber": "3566",
    "addr:postcode": "92105",
    "addr:street": "45th Street",
    "source": "SanGIS Addresses Public Domain (http://www.sangis.org/)"
  }
},
{
  "type": "node",
  "id": 595996103,
  "lat": 33.1752900,
  "lon": -117.2663640,
  "tags": {
    "addr:city": "Oceanside",
    "addr:country": "US",
    "addr:housenumber": "3566",
    "addr:postcode": "92056",
    "addr:street": "Normount Road",
    "source": "SanGIS Addresses Public Domain (http://www.sangis.org/)"
  }
},
{
  "type": "node",
  "id": 595996677,
  "lat": 32.7434620,
  "lon": -117.1054030,
  "tags": {
    "addr:city": "San Diego",
    "addr:country": "US",
    "addr:housenumber": "3567",
    "addr:postcode": "92105",
    "addr:street": "Marlborough Avenue",
    "source": "SanGIS Addresses Public Domain (http://www.sangis.org/)"
  }
},
{
  "type": "node",
  "id": 595997602,
  "lat": 32.7298382,
  "lon": -117.2344108,
  "tags": {
    "addr:city": "San Diego",
    "addr:housenumber": "3565",
    "addr:postcode": "92106",
    "addr:street": "Hugo Street",
    "source": "SanGIS Addresses Public Domain (http://www.sangis.org/)"
  }
},
{
  "type": "node",
  "id": 596001171,
  "lat": 33.1769510,
  "lon": -117.2631270,
  "tags": {
    "addr:city": "Oceanside",
    "addr:country": "US",
    "addr:housenumber": "3568",
    "addr:postcode": "92056",
    "addr:street": "Newland Road",
    "source": "SanGIS Addresses Public Domain (http://www.sangis.org/)"
  }
},
{
  "type": "node",
  "id": 596005553,
  "lat": 33.1807120,
  "lon": -117.2712210,
  "tags": {
    "addr:city": "Oceanside",
    "addr:country": "US",
    "addr:housenumber": "3564",
    "addr:postcode": "92056",
    "addr:street": "Evening Canyon Road",
    "source": "SanGIS Addresses Public Domain (http://www.sangis.org/)"
  }
},
{
  "type": "node",
  "id": 596006308,
  "lat": 33.2061280,
  "lon": -117.3382560,
  "tags": {
    "addr:city": "Oceanside",
    "addr:country": "US",
    "addr:housenumber": "3564",
    "addr:postcode": "92054",
    "addr:street": "Voyager Court",
    "source": "SanGIS Addresses Public Domain (http://www.sangis.org/)"
  }
},
{
  "type": "node",
  "id": 596008449,
  "lat": 32.7430980,
  "lon": -117.1414440,
  "tags": {
    "addr:city": "San Diego",
    "addr:country": "US",
    "addr:housenumber": "3560",
    "addr:postcode": "92104",
    "addr:street": "Mississippi Street",
    "source": "SanGIS Addresses Public Domain (http://www.sangis.org/)"
  }
},
{
  "type": "node",
  "id": 596009533,
  "lat": 32.8471435,
  "lon": -117.2088256,
  "tags": {
    "addr:city": "San Diego",
    "addr:country": "US",
    "addr:housenumber": "3560",
    "addr:postcode": "92122",
    "addr:street": "Syracuse Avenue",
    "source": "SanGIS Addresses Public Domain (http://www.sangis.org/)"
  }
},
{
  "type": "node",
  "id": 596014470,
  "lat": 32.7428880,
  "lon": -117.1209040,
  "tags": {
    "addr:city": "San Diego",
    "addr:country": "US",
    "addr:housenumber": "3565",
    "addr:postcode": "92104",
    "addr:street": "Boundary Street",
    "source": "SanGIS Addresses Public Domain (http://www.sangis.org/)"
  }
},
{
  "type": "node",
  "id": 596014811,
  "lat": 33.1708800,
  "lon": -117.2971140,
  "tags": {
    "addr:country": "US",
    "addr:housenumber": "3569",
    "addr:street": "Sand Court",
    "source": "SanGIS Addresses Public Domain (http://www.sangis.org/)"
  }
},
{
  "type": "node",
  "id": 596014971,
  "lat": 32.7842630,
  "lon": -117.2342790,
  "tags": {
    "addr:city": "San Diego",
    "addr:housenumber": "3566",
    "addr:postcode": "92109",
    "addr:street": "Crown Point Drive",
    "source": "SanGIS Addresses Public Domain (http://www.sangis.org/)"
  }
},
{
  "type": "node",
  "id": 596015032,
  "lat": 32.7183650,
  "lon": -117.2430500,
  "tags": {
    "addr:city": "San Diego",
    "addr:housenumber": "3565",
    "addr:postcode": "92106",
    "addr:street": "Wilcox Street",
    "source": "SanGIS Addresses Public Domain (http://www.sangis.org/)"
  }
},
{
  "type": "node",
  "id": 596019229,
  "lat": 32.5713930,
  "lon": -117.0586590,
  "tags": {
    "addr:city": "San Diego",
    "addr:country": "US",
    "addr:housenumber": "3568",
    "addr:postcode": "92154",
    "addr:street": "Agosto Street",
    "source": "SanGIS Addresses Public Domain (http://www.sangis.org/)"
  }
},
{
  "type": "node",
  "id": 596019358,
  "lat": 32.8070750,
  "lon": -117.1801590,
  "tags": {
    "addr:city": "San Diego",
    "addr:country": "US",
    "addr:housenumber": "3568",
    "addr:postcode": "92111",
    "addr:street": "Accomac Avenue",
    "source": "SanGIS Addresses Public Domain (http://www.sangis.org/)"
  }
},
{
  "type": "node",
  "id": 596019414,
  "lat": 33.1457500,
  "lon": -117.2033390,
  "tags": {
    "addr:city": "San Marcos",
    "addr:housenumber": "3569",
    "addr:postcode": "92078",
    "addr:street": "9th Street",
    "source": "SanGIS Addresses Public Domain (http://www.sangis.org/)"
  }
},
{
  "type": "node",
  "id": 596019435,
  "lat": 33.1676050,
  "lon": -117.2670790,
  "tags": {
    "addr:country": "US",
    "addr:housenumber": "3561",
    "addr:street": "Pirgos Way",
    "source": "SanGIS Addresses Public Domain (http://www.sangis.org/)"
  }
},
{
  "type": "node",
  "id": 596024653,
  "lat": 32.7843760,
  "lon": -117.2350220,
  "tags": {
    "addr:city": "San Diego",
    "addr:housenumber": "3566",
    "addr:postcode": "92109",
    "addr:street": "Jewell Street",
    "source": "SanGIS Addresses Public Domain (http://www.sangis.org/)"
  }
},
{
  "type": "node",
  "id": 596025299,
  "lat": 33.1530580,
  "lon": -117.1724990,
  "tags": {
    "addr:housenumber": "356",
    "addr:street": "Glendale Avenue",
    "source": "SanGIS Addresses Public Domain (http://www.sangis.org/)"
  }
},
{
  "type": "node",
  "id": 596025554,
  "lat": 32.7362150,
  "lon": -117.2283170,
  "tags": {
    "addr:city": "San Diego",
    "addr:housenumber": "3568",
    "addr:postcode": "92106",
    "addr:street": "Quimby Street",
    "source": "SanGIS Addresses Public Domain (http://www.sangis.org/)"
  }
},
{
  "type": "node",
  "id": 596027761,
  "lat": 33.2110670,
  "lon": -117.3313240,
  "tags": {
    "addr:country": "US",
    "addr:housenumber": "3567",
    "addr:street": "Boussock Lane",
    "source": "SanGIS Addresses Public Domain (http://www.sangis.org/)"
  }
},
{
  "type": "node",
  "id": 596027892,
  "lat": 32.5705450,
  "lon": -117.0586560,
  "tags": {
    "addr:city": "San Diego",
    "addr:country": "US",
    "addr:housenumber": "3566",
    "addr:postcode": "92154",
    "addr:street": "Marzo Street",
    "source": "SanGIS Addresses Public Domain (http://www.sangis.org/)"
  }
},
{
  "type": "node",
  "id": 596028227,
  "lat": 32.7440270,
  "lon": -117.0310720,
  "tags": {
    "addr:city": "Lemon Grove",
    "addr:country": "US",
    "addr:housenumber": "3564",
    "addr:postcode": "91945",
    "addr:street": "Main Street",
    "source": "SanGIS Addresses Public Domain (http://www.sangis.org/)"
  }
},
{
  "type": "node",
  "id": 596028362,
  "lat": 32.7435110,
  "lon": -117.1097030,
  "tags": {
    "addr:city": "San Diego",
    "addr:country": "US",
    "addr:housenumber": "3568",
    "addr:postcode": "92105",
    "addr:street": "40th Street",
    "source": "SanGIS Addresses Public Domain (http://www.sangis.org/)"
  }
},
{
  "type": "node",
  "id": 596031729,
  "lat": 32.7427800,
  "lon": -117.1600910,
  "tags": {
    "addr:city": "San Diego",
    "addr:country": "US",
    "addr:housenumber": "3569",
    "addr:postcode": "92103",
    "addr:street": "5th Avenue",
    "source": "SanGIS Addresses Public Domain (http://www.sangis.org/)"
  }
},
{
  "type": "node",
  "id": 596031934,
  "lat": 32.5904630,
  "lon": -117.0474150,
  "tags": {
    "addr:city": "Imperial Beach",
    "addr:country": "US",
    "addr:housenumber": "356",
    "addr:postcode": "91932",
    "addr:street": "Palm Avenue",
    "source": "SanGIS Addresses Public Domain (http://www.sangis.org/)"
  }
},
{
  "type": "node",
  "id": 596032092,
  "lat": 32.7797870,
  "lon": -117.2517130,
  "tags": {
    "addr:city": "San Diego",
    "addr:housenumber": "3568",
    "addr:postcode": "92109",
    "addr:street": "Bayside Walk",
    "source": "SanGIS Addresses Public Domain (http://www.sangis.org/)"
  }
},
{
  "type": "node",
  "id": 596032332,
  "lat": 32.7492280,
  "lon": -116.6910720,
  "tags": {
    "addr:city": "Alpine",
    "addr:country": "US",
    "addr:housenumber": "3560",
    "addr:postcode": "91901",
    "addr:street": "Big Cat Trail",
    "source": "SanGIS Addresses Public Domain (http://www.sangis.org/)"
  }
},
{
  "type": "node",
  "id": 596035799,
  "lat": 33.1472370,
  "lon": -117.2025930,
  "tags": {
    "addr:housenumber": "3562",
    "addr:street": "Grand Avenue",
    "source": "SanGIS Addresses Public Domain (http://www.sangis.org/)"
  }
},
{
  "type": "node",
  "id": 596036414,
  "lat": 32.8089880,
  "lon": -117.1596200,
  "tags": {
    "addr:city": "San Diego",
    "addr:country": "US",
    "addr:housenumber": "3563",
    "addr:postcode": "92111",
    "addr:street": "Ashford Street",
    "source": "SanGIS Addresses Public Domain (http://www.sangis.org/)"
  }
},
{
  "type": "node",
  "id": 596037672,
  "lat": 32.8264090,
  "lon": -117.2096440,
  "tags": {
    "addr:city": "San Diego",
    "addr:country": "US",
    "addr:housenumber": "3566",
    "addr:postcode": "92117",
    "addr:street": "Idlewild Way",
    "source": "SanGIS Addresses Public Domain (http://www.sangis.org/)"
  }
},
{
  "type": "node",
  "id": 596038274,
  "lat": 33.2353200,
  "lon": -117.3095830,
  "tags": {
    "addr:housenumber": "356",
    "addr:street": "Aspen Creek Way",
    "source": "SanGIS Addresses Public Domain (http://www.sangis.org/)"
  }
},
{
  "type": "node",
  "id": 596039876,
  "lat": 32.7463780,
  "lon": -117.0127110,
  "tags": {
    "addr:city": "La Mesa",
    "addr:country": "US",
    "addr:housenumber": "3564",
    "addr:postcode": "91941",
    "addr:street": "Foursome Drive",
    "source": "SanGIS Addresses Public Domain (http://www.sangis.org/)"
  }
},
{
  "type": "node",
  "id": 596040586,
  "lat": 33.1578140,
  "lon": -117.3372650,
  "tags": {
    "addr:city": "Carlsbad",
    "addr:country": "US",
    "addr:housenumber": "3565",
    "addr:postcode": "92008",
    "addr:street": "Adams Street",
    "source": "SanGIS Addresses Public Domain (http://www.sangis.org/)"
  }
},
{
  "type": "node",
  "id": 596041561,
  "lat": 33.1666575,
  "lon": -117.3168938,
  "tags": {
    "addr:city": "Carlsbad",
    "addr:country": "US",
    "addr:housenumber": "3560",
    "addr:postcode": "92010",
    "addr:street": "Sierra Morena Avenue",
    "source": "SanGIS Addresses Public Domain (http://www.sangis.org/)"
  }
},
{
  "type": "node",
  "id": 596042978,
  "lat": 32.7441740,
  "lon": -117.0383630,
  "tags": {
    "addr:city": "Lemon Grove",
    "addr:country": "US",
    "addr:housenumber": "3560",
    "addr:postcode": "91945",
    "addr:street": "West Street",
    "source": "SanGIS Addresses Public Domain (http://www.sangis.org/)"
  }
},
{
  "type": "node",
  "id": 596043052,
  "lat": 32.8064960,
  "lon": -116.8565460,
  "tags": {
    "addr:city": "El Cajon",
    "addr:country": "US",
    "addr:housenumber": "356",
    "addr:postcode": "92021",
    "addr:street": "Al Bahr Road",
    "source": "SanGIS Addresses Public Domain (http://www.sangis.org/)"
  }
},
{
  "type": "node",
  "id": 596044022,
  "lat": 32.7115170,
  "lon": -117.2439530,
  "tags": {
    "addr:city": "San Diego",
    "addr:housenumber": "3561",
    "addr:postcode": "92106",
    "addr:street": "Silvergate Place",
    "source": "SanGIS Addresses Public Domain (http://www.sangis.org/)"
  }
},
{
  "type": "node",
  "id": 596045177,
  "lat": 32.8051800,
  "lon": -117.2019480,
  "tags": {
    "addr:city": "San Diego",
    "addr:country": "US",
    "addr:housenumber": "3560",
    "addr:postcode": "92117",
    "addr:street": "Ottawa Avenue",
    "source": "SanGIS Addresses Public Domain (http://www.sangis.org/)"
  }
},
{
  "type": "node",
  "id": 596046547,
  "lat": 33.3847620,
  "lon": -117.1867500,
  "tags": {
    "addr:city": "Fallbrook",
    "addr:housenumber": "3562",
    "addr:postcode": "92028",
    "addr:street": "Stonegate Place",
    "source": "SanGIS Addresses Public Domain (http://www.sangis.org/)"
  }
},
{
  "type": "node",
  "id": 596047298,
  "lat": 32.5729470,
  "lon": -117.0586620,
  "tags": {
    "addr:city": "San Diego",
    "addr:country": "US",
    "addr:housenumber": "3568",
    "addr:postcode": "92154",
    "addr:street": "Rosa Linda Street",
    "source": "SanGIS Addresses Public Domain (http://www.sangis.org/)"
  }
},
{
  "type": "node",
  "id": 596047839,
  "lat": 32.7352920,
  "lon": -117.2288370,
  "tags": {
    "addr:city": "San Diego",
    "addr:housenumber": "3560",
    "addr:postcode": "92106",
    "addr:street": "Poe Street",
    "source": "SanGIS Addresses Public Domain (http://www.sangis.org/)"
  }
},
{
  "type": "node",
  "id": 596048534,
  "lat": 32.7433360,
  "lon": -117.0984930,
  "tags": {
    "addr:country": "US",
    "addr:housenumber": "3565",
    "addr:street": "Highland Avenue",
    "source": "SanGIS Addresses Public Domain (http://www.sangis.org/)"
  }
},
{
  "type": "node",
  "id": 596048993,
  "lat": 32.7373600,
  "lon": -117.2276760,
  "tags": {
    "addr:city": "San Diego",
    "addr:housenumber": "3564",
    "addr:postcode": "92106",
    "addr:street": "Tennyson Street",
    "source": "SanGIS Addresses Public Domain (http://www.sangis.org/)"
  }
},
{
  "type": "node",
  "id": 596049280,
  "lat": 32.7974560,
  "lon": -116.9916670,
  "tags": {
    "addr:city": "El Cajon",
    "addr:housenumber": "356",
    "addr:postcode": "92020",
    "addr:street": "North Westwind Drive",
    "source": "SanGIS Addresses Public Domain (http://www.sangis.org/)"
  }
},
{
  "type": "node",
  "id": 596051268,
  "lat": 33.2552990,
  "lon": -117.1754320,
  "tags": {
    "addr:city": "Vista",
    "addr:housenumber": "3568",
    "addr:postcode": "92084",
    "addr:street": "Gopher Canyon Road",
    "source": "SanGIS Addresses Public Domain (http://www.sangis.org/)"
  }
},
{
  "type": "node",
  "id": 596051841,
  "lat": 32.8299750,
  "lon": -117.2781860,
  "tags": {
    "addr:country": "US",
    "addr:housenumber": "356",
    "addr:street": "Playa del Norte",
    "source": "SanGIS Addresses Public Domain (http://www.sangis.org/)"
  }
},
{
  "type": "node",
  "id": 596053158,
  "lat": 32.8466410,
  "lon": -117.2086920,
  "tags": {
    "addr:city": "San Diego",
    "addr:country": "US",
    "addr:housenumber": "3565",
    "addr:postcode": "92122",
    "addr:street": "Syracuse Avenue",
    "source": "SanGIS Addresses Public Domain (http://www.sangis.org/)"
  }
},
{
  "type": "node",
  "id": 596054994,
  "lat": 33.0629670,
  "lon": -117.0756180,
  "tags": {
    "addr:city": "Escondido",
    "addr:country": "US",
    "addr:housenumber": "3566",
    "addr:postcode": "92029",
    "addr:street": "Lomas Serenas Drive",
    "source": "SanGIS Addresses Public Domain (http://www.sangis.org/)"
  }
},
{
  "type": "node",
  "id": 596060757,
  "lat": 33.3234440,
  "lon": -117.1500010,
  "tags": {
    "addr:city": "Fallbrook",
    "addr:housenumber": "3568",
    "addr:postcode": "92028",
    "addr:street": "Lake Shore Avenue",
    "source": "SanGIS Addresses Public Domain (http://www.sangis.org/)"
  }
},
{
  "type": "node",
  "id": 596060901,
  "lat": 33.1781890,
  "lon": -117.2805210,
  "tags": {
    "addr:country": "US",
    "addr:housenumber": "3569",
    "addr:street": "Sky Haven Lane",
    "source": "SanGIS Addresses Public Domain (http://www.sangis.org/)"
  }
},
{
  "type": "node",
  "id": 596062515,
  "lat": 32.7432800,
  "lon": -117.1024270,
  "tags": {
    "addr:country": "US",
    "addr:housenumber": "3564",
    "addr:street": "43rd Street",
    "source": "SanGIS Addresses Public Domain (http://www.sangis.org/)"
  }
},
{
  "type": "node",
  "id": 596062590,
  "lat": 32.7796210,
  "lon": -117.2531500,
  "tags": {
    "addr:housenumber": "3563",
    "addr:street": "Ocean Front Walk",
    "source": "SanGIS Addresses Public Domain (http://www.sangis.org/)"
  }
},
{
  "type": "node",
  "id": 596063022,
  "lat": 33.1847270,
  "lon": -117.3072850,
  "tags": {
    "addr:city": "Oceanside",
    "addr:country": "US",
    "addr:housenumber": "3562",
    "addr:postcode": "92056",
    "addr:street": "Mira Pacific Drive",
    "source": "SanGIS Addresses Public Domain (http://www.sangis.org/)"
  }
},
{
  "type": "node",
  "id": 596063067,
  "lat": 33.2488420,
  "lon": -117.3118500,
  "tags": {
    "addr:country": "US",
    "addr:housenumber": "356",
    "addr:street": "Riverview Way",
    "source": "SanGIS Addresses Public Domain (http://www.sangis.org/)"
  }
},
{
  "type": "node",
  "id": 596063319,
  "lat": 32.9216410,
  "lon": -117.2344730,
  "tags": {
    "addr:city": "San Diego",
    "addr:housenumber": "3560 1/2",
    "addr:postcode": "92130",
    "addr:street": "Torrey View Court",
    "source": "SanGIS Addresses Public Domain (http://www.sangis.org/)"
  }
},
{
  "type": "node",
  "id": 596063571,
  "lat": 32.8257550,
  "lon": -117.2104980,
  "tags": {
    "addr:city": "San Diego",
    "addr:country": "US",
    "addr:housenumber": "3565",
    "addr:postcode": "92117",
    "addr:street": "Oak Glen Lane",
    "source": "SanGIS Addresses Public Domain (http://www.sangis.org/)"
  }
},
{
  "type": "node",
  "id": 596066760,
  "lat": 32.7433760,
  "lon": -117.1364890,
  "tags": {
    "addr:city": "San Diego",
    "addr:country": "US",
    "addr:housenumber": "3569",
    "addr:postcode": "92104",
    "addr:street": "Arnold Avenue",
    "source": "SanGIS Addresses Public Domain (http://www.sangis.org/)"
  }
},
{
  "type": "node",
  "id": 596068601,
  "lat": 32.7435000,
  "lon": -117.0190760,
  "tags": {
    "addr:country": "US",
    "addr:housenumber": "3564",
    "addr:street": "Sweetwater Way",
    "source": "SanGIS Addresses Public Domain (http://www.sangis.org/)"
  }
},
{
  "type": "node",
  "id": 596070627,
  "lat": 32.7845370,
  "lon": -117.2360610,
  "tags": {
    "addr:city": "San Diego",
    "addr:housenumber": "3565",
    "addr:postcode": "92109",
    "addr:street": "Ingraham Street",
    "source": "SanGIS Addresses Public Domain (http://www.sangis.org/)"
  }
},
{
  "type": "node",
  "id": 596070903,
  "lat": 33.2111360,
  "lon": -117.3380570,
  "tags": {
    "addr:city": "Oceanside",
    "addr:country": "US",
    "addr:housenumber": "3569",
    "addr:postcode": "92054",
    "addr:street": "Starboard Circle",
    "source": "SanGIS Addresses Public Domain (http://www.sangis.org/)"
  }
},
{
  "type": "node",
  "id": 596071981,
  "lat": 33.1309210,
  "lon": -117.0064830,
  "tags": {
    "addr:country": "US",
    "addr:housenumber": "3566",
    "addr:street": "Wild Oak Lane",
    "source": "SanGIS Addresses Public Domain (http://www.sangis.org/)"
  }
},
{
  "type": "node",
  "id": 596072588,
  "lat": 32.7841720,
  "lon": -117.2382270,
  "tags": {
    "addr:city": "San Diego",
    "addr:housenumber": "3560",
    "addr:postcode": "92109",
    "addr:street": "Bayonne Drive",
    "source": "SanGIS Addresses Public Domain (http://www.sangis.org/)"
  }
},
{
  "type": "node",
  "id": 596074182,
  "lat": 32.8087430,
  "lon": -117.1570410,
  "tags": {
    "addr:city": "San Diego",
    "addr:country": "US",
    "addr:housenumber": "3561",
    "addr:postcode": "92111",
    "addr:street": "Budd Street",
    "source": "SanGIS Addresses Public Domain (http://www.sangis.org/)"
  }
},
{
  "type": "node",
  "id": 596074538,
  "lat": 33.2098210,
  "lon": -117.3314260,
  "tags": {
    "addr:country": "US",
    "addr:housenumber": "3566",
    "addr:street": "Pear Blossom Drive",
    "source": "SanGIS Addresses Public Domain (http://www.sangis.org/)"
  }
},
{
  "type": "node",
  "id": 596074573,
  "lat": 32.8089780,
  "lon": -117.1728960,
  "tags": {
    "addr:city": "San Diego",
    "addr:country": "US",
    "addr:housenumber": "3566",
    "addr:postcode": "92111",
    "addr:street": "Chasewood Drive",
    "source": "SanGIS Addresses Public Domain (http://www.sangis.org/)"
  }
},
{
  "type": "node",
  "id": 596074925,
  "lat": 33.1659580,
  "lon": -117.3237590,
  "tags": {
    "addr:city": "Carlsbad",
    "addr:country": "US",
    "addr:housenumber": "3560",
    "addr:postcode": "92008",
    "addr:street": "Ridgecrest Drive",
    "source": "SanGIS Addresses Public Domain (http://www.sangis.org/)"
  }
},
{
  "type": "node",
  "id": 596076502,
  "lat": 33.2107090,
  "lon": -117.3316040,
  "tags": {
    "addr:city": "Oceanside",
    "addr:country": "US",
    "addr:housenumber": "3560",
    "addr:postcode": "92057",
    "addr:street": "Bartlett Avenue",
    "source": "SanGIS Addresses Public Domain (http://www.sangis.org/)"
  }
},
{
  "type": "node",
  "id": 596079698,
  "lat": 32.7081180,
  "lon": -117.1172270,
  "tags": {
    "addr:city": "San Diego",
    "addr:country": "US",
    "addr:housenumber": "3568",
    "addr:postcode": "92102",
    "addr:street": "L Street",
    "source": "SanGIS Addresses Public Domain (http://www.sangis.org/)"
  }
},
{
  "type": "node",
  "id": 596082716,
  "lat": 33.1801150,
  "lon": -117.2696280,
  "tags": {
    "addr:city": "Oceanside",
    "addr:country": "US",
    "addr:housenumber": "3562",
    "addr:postcode": "92056",
    "addr:street": "Winslow Road",
    "source": "SanGIS Addresses Public Domain (http://www.sangis.org/)"
  }
},
{
  "type": "node",
  "id": 596083076,
  "lat": 33.2107510,
  "lon": -117.3380960,
  "tags": {
    "addr:country": "US",
    "addr:housenumber": "3562",
    "addr:street": "Sea Ridge Road",
    "source": "SanGIS Addresses Public Domain (http://www.sangis.org/)"
  }
},
{
  "type": "node",
  "id": 596083628,
  "lat": 33.1707190,
  "lon": -117.2956720,
  "tags": {
    "addr:country": "US",
    "addr:housenumber": "3569",
    "addr:street": "Rock Ridge Road",
    "source": "SanGIS Addresses Public Domain (http://www.sangis.org/)"
  }
},
{
  "type": "node",
  "id": 596085101,
  "lat": 33.3611630,
  "lon": -117.1372710,
  "tags": {
    "addr:city": "Fallbrook",
    "addr:country": "US",
    "addr:housenumber": "35664",
    "addr:postcode": "92028",
    "addr:street": "Rice Canyon Road",
    "source": "SanGIS Addresses Public Domain (http://www.sangis.org/)"
  }
},
{
  "type": "node",
  "id": 596085722,
  "lat": 32.9220670,
  "lon": -117.2345310,
  "tags": {
    "addr:city": "San Diego",
    "addr:housenumber": "3566",
    "addr:postcode": "92130",
    "addr:street": "Torrey View Court",
    "source": "SanGIS Addresses Public Domain (http://www.sangis.org/)"
  }
},
{
  "type": "node",
  "id": 596086772,
  "lat": 32.7448120,
  "lon": -117.0078110,
  "tags": {
    "addr:city": "Spring Valley",
    "addr:country": "US",
    "addr:housenumber": "3563",
    "addr:postcode": "91977",
    "addr:street": "Hartzel Drive",
    "source": "SanGIS Addresses Public Domain (http://www.sangis.org/)"
  }
},
{
  "type": "node",
  "id": 596088365,
  "lat": 32.7842270,
  "lon": -117.2350470,
  "tags": {
    "addr:city": "San Diego",
    "addr:housenumber": "3560",
    "addr:postcode": "92109",
    "addr:street": "Jewell Street",
    "source": "SanGIS Addresses Public Domain (http://www.sangis.org/)"
  }
},
{
  "type": "node",
  "id": 596089076,
  "lat": 32.8073010,
  "lon": -117.1797050,
  "tags": {
    "addr:city": "San Diego",
    "addr:country": "US",
    "addr:housenumber": "3561",
    "addr:postcode": "92111",
    "addr:street": "Accomac Avenue",
    "source": "SanGIS Addresses Public Domain (http://www.sangis.org/)"
  }
},
{
  "type": "node",
  "id": 596089100,
  "lat": 32.7841220,
  "lon": -117.2392800,
  "tags": {
    "addr:city": "San Diego",
    "addr:housenumber": "3565",
    "addr:postcode": "92109",
    "addr:street": "Riviera Drive",
    "source": "SanGIS Addresses Public Domain (http://www.sangis.org/)"
  }
},
{
  "type": "node",
  "id": 596091561,
  "lat": 32.7430520,
  "lon": -117.1231610,
  "tags": {
    "addr:city": "San Diego",
    "addr:country": "US",
    "addr:housenumber": "3560",
    "addr:postcode": "92104",
    "addr:street": "33rd Street",
    "source": "SanGIS Addresses Public Domain (http://www.sangis.org/)"
  }
},
{
  "type": "node",
  "id": 596093530,
  "lat": 32.8287600,
  "lon": -117.2091530,
  "tags": {
    "addr:city": "San Diego",
    "addr:country": "US",
    "addr:housenumber": "3568",
    "addr:postcode": "92117",
    "addr:street": "Luna Avenue",
    "source": "SanGIS Addresses Public Domain (http://www.sangis.org/)"
  }
},
{
  "type": "node",
  "id": 596093824,
  "lat": 33.1856660,
  "lon": -117.3074950,
  "tags": {
    "addr:city": "Oceanside",
    "addr:country": "US",
    "addr:housenumber": "3560",
    "addr:postcode": "92056",
    "addr:street": "Santa Maria Street",
    "source": "SanGIS Addresses Public Domain (http://www.sangis.org/)"
  }
},
{
  "type": "node",
  "id": 596094503,
  "lat": 32.7427300,
  "lon": -117.1652810,
  "tags": {
    "addr:city": "San Diego",
    "addr:country": "US",
    "addr:housenumber": "3568",
    "addr:postcode": "92103",
    "addr:street": "Front Street",
    "source": "SanGIS Addresses Public Domain (http://www.sangis.org/)"
  }
},
{
  "type": "node",
  "id": 596095197,
  "lat": 32.8290110,
  "lon": -117.2088260,
  "tags": {
    "addr:city": "San Diego",
    "addr:country": "US",
    "addr:housenumber": "3563",
    "addr:postcode": "92117",
    "addr:street": "Moccasin Avenue",
    "source": "SanGIS Addresses Public Domain (http://www.sangis.org/)"
  }
},
{
  "type": "node",
  "id": 596097284,
  "lat": 32.7432860,
  "lon": -117.0952480,
  "tags": {
    "addr:city": "San Diego",
    "addr:country": "US",
    "addr:housenumber": "3561",
    "addr:postcode": "92105",
    "addr:street": "46th Street",
    "source": "SanGIS Addresses Public Domain (http://www.sangis.org/)"
  }
},
{
  "type": "node",
  "id": 596097791,
  "lat": 33.2135230,
  "lon": -116.5592160,
  "tags": {
    "addr:city": "Ranchita",
    "addr:country": "US",
    "addr:housenumber": "35690",
    "addr:postcode": "92066",
    "addr:street": "Montezuma Valley Road",
    "source": "SanGIS Addresses Public Domain (http://www.sangis.org/)"
  }
},
{
  "type": "node",
  "id": 596098842,
  "lat": 33.1856920,
  "lon": -117.3073570,
  "tags": {
    "addr:city": "Oceanside",
    "addr:country": "US",
    "addr:housenumber": "3564",
    "addr:postcode": "92056",
    "addr:street": "Santa Maria Street",
    "source": "SanGIS Addresses Public Domain (http://www.sangis.org/)"
  }
},
{
  "type": "node",
  "id": 596099159,
  "lat": 32.8256100,
  "lon": -117.2100530,
  "tags": {
    "addr:city": "San Diego",
    "addr:country": "US",
    "addr:housenumber": "3564",
    "addr:postcode": "92117",
    "addr:street": "Hatteras Avenue",
    "source": "SanGIS Addresses Public Domain (http://www.sangis.org/)"
  }
},
{
  "type": "node",
  "id": 596100882,
  "lat": 33.3577000,
  "lon": -117.1835990,
  "tags": {
    "addr:city": "Fallbrook",
    "addr:housenumber": "3563",
    "addr:postcode": "92028",
    "addr:street": "Canonita Drive",
    "source": "SanGIS Addresses Public Domain (http://www.sangis.org/)"
  }
},
{
  "type": "node",
  "id": 596100952,
  "lat": 32.8070290,
  "lon": -117.1267510,
  "tags": {
    "addr:city": "San Diego",
    "addr:country": "US",
    "addr:housenumber": "3562",
    "addr:postcode": "92123",
    "addr:street": "Angwin Drive",
    "source": "SanGIS Addresses Public Domain (http://www.sangis.org/)"
  }
},
{
  "type": "node",
  "id": 596101908,
  "lat": 32.8287630,
  "lon": -117.2093500,
  "tags": {
    "addr:city": "San Diego",
    "addr:country": "US",
    "addr:housenumber": "3560",
    "addr:postcode": "92117",
    "addr:street": "Luna Avenue",
    "source": "SanGIS Addresses Public Domain (http://www.sangis.org/)"
  }
},
{
  "type": "node",
  "id": 596102846,
  "lat": 32.8378590,
  "lon": -117.2106570,
  "tags": {
    "addr:city": "San Diego",
    "addr:country": "US",
    "addr:housenumber": "3562",
    "addr:postcode": "92117",
    "addr:street": "Argonne Street",
    "source": "SanGIS Addresses Public Domain (http://www.sangis.org/)"
  }
},
{
  "type": "node",
  "id": 596105964,
  "lat": 32.7071170,
  "lon": -117.1173370,
  "tags": {
    "addr:country": "US",
    "addr:housenumber": "3566",
    "addr:street": "Tompkins Street",
    "source": "SanGIS Addresses Public Domain (http://www.sangis.org/)"
  }
},
{
  "type": "node",
  "id": 596106151,
  "lat": 33.1735870,
  "lon": -117.2870620,
  "tags": {
    "addr:country": "US",
    "addr:housenumber": "3561",
    "addr:street": "Knollwood Drive",
    "source": "SanGIS Addresses Public Domain (http://www.sangis.org/)"
  }
},
{
  "type": "node",
  "id": 596106219,
  "lat": 32.8053440,
  "lon": -117.1796710,
  "tags": {
    "addr:city": "San Diego",
    "addr:country": "US",
    "addr:housenumber": "3564",
    "addr:postcode": "92111",
    "addr:street": "Old Cobble Road",
    "source": "SanGIS Addresses Public Domain (http://www.sangis.org/)"
  }
},
{
  "type": "node",
  "id": 596108806,
  "lat": 33.1793040,
  "lon": -117.2683080,
  "tags": {
    "addr:city": "Oceanside",
    "addr:country": "US",
    "addr:housenumber": "3568",
    "addr:postcode": "92056",
    "addr:street": "Normandy Circle",
    "source": "SanGIS Addresses Public Domain (http://www.sangis.org/)"
  }
},
{
  "type": "node",
  "id": 596111312,
  "lat": 32.7092100,
  "lon": -117.1172910,
  "tags": {
    "addr:city": "San Diego",
    "addr:country": "US",
    "addr:housenumber": "3563",
    "addr:postcode": "92102",
    "addr:street": "J Street",
    "source": "SanGIS Addresses Public Domain (http://www.sangis.org/)"
  }
},
{
  "type": "node",
  "id": 596111788,
  "lat": 33.3274160,
  "lon": -117.2441670,
  "tags": {
    "addr:city": "Fallbrook",
    "addr:housenumber": "3562",
    "addr:postcode": "92028",
    "addr:street": "Olive Hill Road",
    "source": "SanGIS Addresses Public Domain (http://www.sangis.org/)"
  }
},
{
  "type": "node",
  "id": 596113245,
  "lat": 33.2356790,
  "lon": -117.3112600,
  "tags": {
    "addr:housenumber": "356",
    "addr:street": "Monte Vista Way",
    "source": "SanGIS Addresses Public Domain (http://www.sangis.org/)"
  }
},
{
  "type": "node",
  "id": 596116306,
  "lat": 33.1706630,
  "lon": -117.2958470,
  "tags": {
    "addr:country": "US",
    "addr:housenumber": "3567",
    "addr:street": "Rock Ridge Road",
    "source": "SanGIS Addresses Public Domain (http://www.sangis.org/)"
  }
},
{
  "type": "node",
  "id": 596116367,
  "lat": 33.1853750,
  "lon": -117.3071860,
  "tags": {
    "addr:city": "Oceanside",
    "addr:country": "US",
    "addr:housenumber": "3567",
    "addr:postcode": "92056",
    "addr:street": "Santa Maria Street",
    "source": "SanGIS Addresses Public Domain (http://www.sangis.org/)"
  }
},
{
  "type": "node",
  "id": 596118887,
  "lat": 32.8415740,
  "lon": -117.2101380,
  "tags": {
    "addr:city": "San Diego",
    "addr:country": "US",
    "addr:housenumber": "3568",
    "addr:postcode": "92117",
    "addr:street": "Gaylord Court",
    "source": "SanGIS Addresses Public Domain (http://www.sangis.org/)"
  }
},
{
  "type": "node",
  "id": 596121053,
  "lat": 33.2167640,
  "lon": -117.2372860,
  "tags": {
    "addr:country": "US",
    "addr:housenumber": "356",
    "addr:street": "Apollo Drive",
    "source": "SanGIS Addresses Public Domain (http://www.sangis.org/)"
  }
},
{
  "type": "node",
  "id": 596124789,
  "lat": 32.8088530,
  "lon": -117.1730050,
  "tags": {
    "addr:city": "San Diego",
    "addr:country": "US",
    "addr:housenumber": "3560",
    "addr:postcode": "92111",
    "addr:street": "Chasewood Drive",
    "source": "SanGIS Addresses Public Domain (http://www.sangis.org/)"
  }
},
{
  "type": "node",
  "id": 596125461,
  "lat": 33.1711180,
  "lon": -117.2975420,
  "tags": {
    "addr:country": "US",
    "addr:housenumber": "3564",
    "addr:street": "Flat Rock Street",
    "source": "SanGIS Addresses Public Domain (http://www.sangis.org/)"
  }
},
{
  "type": "node",
  "id": 596126584,
  "lat": 32.8056640,
  "lon": -117.1962530,
  "tags": {
    "addr:city": "San Diego",
    "addr:country": "US",
    "addr:housenumber": "3560",
    "addr:postcode": "92117",
    "addr:street": "Cowley Way",
    "source": "SanGIS Addresses Public Domain (http://www.sangis.org/)"
  }
},
{
  "type": "node",
  "id": 596126856,
  "lat": 32.7432330,
  "lon": -117.1225470,
  "tags": {
    "addr:city": "San Diego",
    "addr:country": "US",
    "addr:housenumber": "3567",
    "addr:postcode": "92104",
    "addr:street": "33rd Street",
    "source": "SanGIS Addresses Public Domain (http://www.sangis.org/)"
  }
},
{
  "type": "node",
  "id": 596130208,
  "lat": 33.1928330,
  "lon": -117.1820750,
  "tags": {
    "addr:city": "Vista",
    "addr:housenumber": "3566",
    "addr:postcode": "92084",
    "addr:street": "Royal Road",
    "source": "SanGIS Addresses Public Domain (http://www.sangis.org/)"
  }
},
{
  "type": "node",
  "id": 596131206,
  "lat": 33.1844750,
  "lon": -117.3068350,
  "tags": {
    "addr:city": "Oceanside",
    "addr:country": "US",
    "addr:housenumber": "3569",
    "addr:postcode": "92056",
    "addr:street": "Mira Pacific Drive",
    "source": "SanGIS Addresses Public Domain (http://www.sangis.org/)"
  }
},
{
  "type": "node",
  "id": 596133997,
  "lat": 32.7090970,
  "lon": -117.1594860,
  "tags": {
    "addr:city": "San Diego",
    "addr:country": "US",
    "addr:housenumber": "356",
    "addr:postcode": "92101",
    "addr:street": "6th Avenue",
    "source": "SanGIS Addresses Public Domain (http://www.sangis.org/)"
  }
},
{
  "type": "node",
  "id": 596134051,
  "lat": 32.5722040,
  "lon": -117.0586450,
  "tags": {
    "addr:city": "San Diego",
    "addr:country": "US",
    "addr:housenumber": "3568",
    "addr:postcode": "92154",
    "addr:street": "Arruza Street",
    "source": "SanGIS Addresses Public Domain (http://www.sangis.org/)"
  }
},
{
  "type": "node",
  "id": 596134824,
  "lat": 33.1501330,
  "lon": -117.1587190,
  "tags": {
    "addr:housenumber": "356",
    "addr:street": "Rolling Hills Lane",
    "source": "SanGIS Addresses Public Domain (http://www.sangis.org/)"
  }
},
{
  "type": "node",
  "id": 596135313,
  "lat": 32.7796570,
  "lon": -117.2517400,
  "tags": {
    "addr:city": "San Diego",
    "addr:housenumber": "3564",
    "addr:postcode": "92109",
    "addr:street": "Bayside Walk",
    "source": "SanGIS Addresses Public Domain (http://www.sangis.org/)"
  }
},
{
  "type": "node",
  "id": 596135698,
  "lat": 32.7435160,
  "lon": -117.1303650,
  "tags": {
    "addr:city": "San Diego",
    "addr:country": "US",
    "addr:housenumber": "3560",
    "addr:postcode": "92104",
    "addr:street": "30th Street",
    "source": "SanGIS Addresses Public Domain (http://www.sangis.org/)"
  }
},
{
  "type": "node",
  "id": 596136239,
  "lat": 32.7843790,
  "lon": -117.2345560,
  "tags": {
    "addr:city": "San Diego",
    "addr:housenumber": "3565",
    "addr:postcode": "92109",
    "addr:street": "Jewell Street",
    "source": "SanGIS Addresses Public Domain (http://www.sangis.org/)"
  }
},
{
  "type": "node",
  "id": 596139312,
  "lat": 33.1865910,
  "lon": -117.3010180,
  "tags": {
    "addr:city": "Oceanside",
    "addr:country": "US",
    "addr:housenumber": "3564",
    "addr:postcode": "92056",
    "addr:street": "Strawberry Place",
    "source": "SanGIS Addresses Public Domain (http://www.sangis.org/)"
  }
},
{
  "type": "node",
  "id": 596139642,
  "lat": 32.8411540,
  "lon": -117.2800550,
  "tags": {
    "addr:city": "La Jolla",
    "addr:country": "US",
    "addr:housenumber": "356",
    "addr:postcode": "92037",
    "addr:street": "Prospect Street",
    "source": "SanGIS Addresses Public Domain (http://www.sangis.org/)"
  }
},
{
  "type": "node",
  "id": 596139722,
  "lat": 32.8077320,
  "lon": -117.2087370,
  "tags": {
    "addr:city": "San Diego",
    "addr:country": "US",
    "addr:housenumber": "3562",
    "addr:postcode": "92117",
    "addr:street": "Don Lorenzo Drive",
    "source": "SanGIS Addresses Public Domain (http://www.sangis.org/)"
  }
},
{
  "type": "node",
  "id": 596140125,
  "lat": 32.9849980,
  "lon": -117.2391970,
  "tags": {
    "addr:city": "Del Mar",
    "addr:housenumber": "3560",
    "addr:postcode": "92014",
    "addr:street": "Caminito Daniella",
    "source": "SanGIS Addresses Public Domain (http://www.sangis.org/)"
  }
},
{
  "type": "node",
  "id": 596140861,
  "lat": 33.2116940,
  "lon": -117.3316410,
  "tags": {
    "addr:country": "US",
    "addr:housenumber": "3561",
    "addr:street": "Buffum Drive",
    "source": "SanGIS Addresses Public Domain (http://www.sangis.org/)"
  }
},
{
  "type": "node",
  "id": 596142062,
  "lat": 32.7014270,
  "lon": -117.1155910,
  "tags": {
    "addr:city": "San Diego",
    "addr:country": "US",
    "addr:housenumber": "3568",
    "addr:postcode": "92113",
    "addr:street": "Ocean View Boulevard",
    "source": "SanGIS Addresses Public Domain (http://www.sangis.org/)"
  }
},
{
  "type": "node",
  "id": 596142080,
  "lat": 32.6702680,
  "lon": -117.0196710,
  "tags": {
    "addr:city": "Bonita",
    "addr:country": "US",
    "addr:housenumber": "3566",
    "addr:postcode": "91902",
    "addr:street": "Frisbie Street",
    "source": "SanGIS Addresses Public Domain (http://www.sangis.org/)"
  }
},
{
  "type": "node",
  "id": 596142885,
  "lat": 32.9217500,
  "lon": -117.2345950,
  "tags": {
    "addr:city": "San Diego",
    "addr:housenumber": "3564",
    "addr:postcode": "92130",
    "addr:street": "Torrey View Court",
    "source": "SanGIS Addresses Public Domain (http://www.sangis.org/)"
  }
},
{
  "type": "node",
  "id": 596144488,
  "lat": 32.5494420,
  "lon": -117.0535190,
  "tags": {
    "addr:city": "San Ysidro",
    "addr:country": "US",
    "addr:housenumber": "3561",
    "addr:postcode": "92173",
    "addr:street": "Maguire Road",
    "source": "SanGIS Addresses Public Domain (http://www.sangis.org/)"
  }
},
{
  "type": "node",
  "id": 596145387,
  "lat": 32.7416250,
  "lon": -117.1761790,
  "tags": {
    "addr:city": "San Diego",
    "addr:country": "US",
    "addr:housenumber": "3565",
    "addr:postcode": "92103",
    "addr:street": "Union Street",
    "source": "SanGIS Addresses Public Domain (http://www.sangis.org/)"
  }
},
{
  "type": "node",
  "id": 596146173,
  "lat": 32.7433260,
  "lon": -117.1061290,
  "tags": {
    "addr:country": "US",
    "addr:housenumber": "3562",
    "addr:street": "Marlborough Avenue",
    "source": "SanGIS Addresses Public Domain (http://www.sangis.org/)"
  }
},
{
  "type": "node",
  "id": 596146636,
  "lat": 32.7435170,
  "lon": -117.1306920,
  "tags": {
    "addr:city": "San Diego",
    "addr:country": "US",
    "addr:housenumber": "3563",
    "addr:postcode": "92104",
    "addr:street": "29th Street",
    "source": "SanGIS Addresses Public Domain (http://www.sangis.org/)"
  }
},
{
  "type": "node",
  "id": 596146781,
  "lat": 32.7426970,
  "lon": -117.1641420,
  "tags": {
    "addr:city": "San Diego",
    "addr:country": "US",
    "addr:housenumber": "3560",
    "addr:postcode": "92103",
    "addr:street": "1st Avenue",
    "source": "SanGIS Addresses Public Domain (http://www.sangis.org/)"
  }
},
{
  "type": "node",
  "id": 596147524,
  "lat": 33.1801300,
  "lon": -117.2878190,
  "tags": {
    "addr:city": "Oceanside",
    "addr:country": "US",
    "addr:housenumber": "3564",
    "addr:postcode": "92056",
    "addr:street": "Thunder Drive",
    "source": "SanGIS Addresses Public Domain (http://www.sangis.org/)"
  }
},
{
  "type": "node",
  "id": 596149648,
  "lat": 32.7795620,
  "lon": -117.2517590,
  "tags": {
    "addr:city": "San Diego",
    "addr:housenumber": "3560",
    "addr:postcode": "92109",
    "addr:street": "Bayside Walk",
    "source": "SanGIS Addresses Public Domain (http://www.sangis.org/)"
  }
},
{
  "type": "node",
  "id": 596151004,
  "lat": 32.8037360,
  "lon": -117.2141250,
  "tags": {
    "addr:city": "San Diego",
    "addr:housenumber": "3565",
    "addr:postcode": "92109",
    "addr:street": "Del Rey Street",
    "source": "SanGIS Addresses Public Domain (http://www.sangis.org/)"
  }
},
{
  "type": "node",
  "id": 596151063,
  "lat": 32.7468800,
  "lon": -117.0125720,
  "tags": {
    "addr:city": "La Mesa",
    "addr:country": "US",
    "addr:housenumber": "3569",
    "addr:postcode": "91941",
    "addr:street": "Trophy Drive",
    "source": "SanGIS Addresses Public Domain (http://www.sangis.org/)"
  }
},
{
  "type": "node",
  "id": 596151541,
  "lat": 33.0694693,
  "lon": -117.2185327,
  "tags": {
    "addr:country": "US",
    "addr:housenumber": "3560",
    "addr:street": "Copper Crest Road",
    "source": "SanGIS Addresses Public Domain (http://www.sangis.org/)"
  }
},
{
  "type": "node",
  "id": 596153238,
  "lat": 33.1756310,
  "lon": -117.2655170,
  "tags": {
    "addr:city": "Oceanside",
    "addr:country": "US",
    "addr:housenumber": "3563",
    "addr:postcode": "92056",
    "addr:street": "Normount Road",
    "source": "SanGIS Addresses Public Domain (http://www.sangis.org/)"
  }
},
{
  "type": "node",
  "id": 596154712,
  "lat": 32.7095320,
  "lon": -117.1341330,
  "tags": {
    "addr:city": "San Diego",
    "addr:country": "US",
    "addr:housenumber": "356",
    "addr:postcode": "92102",
    "addr:street": "28th Street",
    "source": "SanGIS Addresses Public Domain (http://www.sangis.org/)"
  }
},
{
  "type": "node",
  "id": 596154985,
  "lat": 32.7436400,
  "lon": -117.1325160,
  "tags": {
    "addr:city": "San Diego",
    "addr:country": "US",
    "addr:housenumber": "3569",
    "addr:postcode": "92104",
    "addr:street": "Utah Street",
    "source": "SanGIS Addresses Public Domain (http://www.sangis.org/)"
  }
},
{
  "type": "node",
  "id": 596157491,
  "lat": 32.7450300,
  "lon": -117.0078500,
  "tags": {
    "addr:city": "Spring Valley",
    "addr:country": "US",
    "addr:housenumber": "3567",
    "addr:postcode": "91977",
    "addr:street": "Hartzel Drive",
    "source": "SanGIS Addresses Public Domain (http://www.sangis.org/)"
  }
},
{
  "type": "node",
  "id": 596158467,
  "lat": 32.8279900,
  "lon": -117.2092180,
  "tags": {
    "addr:city": "San Diego",
    "addr:country": "US",
    "addr:housenumber": "3564",
    "addr:postcode": "92117",
    "addr:street": "Clairemont Mesa Boulevard",
    "source": "SanGIS Addresses Public Domain (http://www.sangis.org/)"
  }
},
{
  "type": "node",
  "id": 596158974,
  "lat": 33.1786570,
  "lon": -117.2738360,
  "tags": {
    "addr:city": "Oceanside",
    "addr:country": "US",
    "addr:housenumber": "3565",
    "addr:postcode": "92056",
    "addr:street": "Amber Lane",
    "source": "SanGIS Addresses Public Domain (http://www.sangis.org/)"
  }
},
{
  "type": "node",
  "id": 596159178,
  "lat": 32.5602360,
  "lon": -117.0532130,
  "tags": {
    "addr:city": "San Ysidro",
    "addr:country": "US",
    "addr:housenumber": "356",
    "addr:postcode": "92173",
    "addr:street": "South Vista Avenue",
    "source": "SanGIS Addresses Public Domain (http://www.sangis.org/)"
  }
},
{
  "type": "node",
  "id": 596160016,
  "lat": 33.0866610,
  "lon": -117.0636380,
  "tags": {
    "addr:country": "US",
    "addr:housenumber": "356",
    "addr:street": "Saratoga Glen",
    "source": "SanGIS Addresses Public Domain (http://www.sangis.org/)"
  }
},
{
  "type": "node",
  "id": 596160668,
  "lat": 33.0635340,
  "lon": -117.0755610,
  "tags": {
    "addr:city": "Escondido",
    "addr:country": "US",
    "addr:housenumber": "3563",
    "addr:postcode": "92029",
    "addr:street": "Lomas Serenas Drive",
    "source": "SanGIS Addresses Public Domain (http://www.sangis.org/)"
  }
},
{
  "type": "node",
  "id": 596164228,
  "lat": 33.1997690,
  "lon": -117.2637040,
  "tags": {
    "addr:city": "Vista",
    "addr:country": "US",
    "addr:housenumber": "356",
    "addr:postcode": "92083",
    "addr:street": "Yacon Street",
    "source": "SanGIS Addresses Public Domain (http://www.sangis.org/)"
  }
},
{
  "type": "node",
  "id": 596164288,
  "lat": 33.1808560,
  "lon": -117.2721370,
  "tags": {
    "addr:city": "Oceanside",
    "addr:country": "US",
    "addr:housenumber": "3563",
    "addr:postcode": "92056",
    "addr:street": "Evening Canyon Road",
    "source": "SanGIS Addresses Public Domain (http://www.sangis.org/)"
  }
},
{
  "type": "node",
  "id": 596164476,
  "lat": 33.2076070,
  "lon": -117.3413380,
  "tags": {
    "addr:city": "Oceanside",
    "addr:country": "US",
    "addr:housenumber": "356",
    "addr:postcode": "92054",
    "addr:street": "Islander Street",
    "source": "SanGIS Addresses Public Domain (http://www.sangis.org/)"
  }
},
{
  "type": "node",
  "id": 596165337,
  "lat": 32.7426760,
  "lon": -117.1607340,
  "tags": {
    "addr:city": "San Diego",
    "addr:country": "US",
    "addr:housenumber": "3564",
    "addr:postcode": "92103",
    "addr:street": "5th Avenue",
    "source": "SanGIS Addresses Public Domain (http://www.sangis.org/)"
  }
},
{
  "type": "node",
  "id": 596165920,
  "lat": 32.7427400,
  "lon": -117.1646180,
  "tags": {
    "addr:city": "San Diego",
    "addr:country": "US",
    "addr:housenumber": "3567",
    "addr:postcode": "92103",
    "addr:street": "Front Street",
    "source": "SanGIS Addresses Public Domain (http://www.sangis.org/)"
  }
},
{
  "type": "node",
  "id": 596172887,
  "lat": 33.1544580,
  "lon": -117.3418810,
  "tags": {
    "addr:country": "US",
    "addr:housenumber": "3565",
    "addr:street": "Madison Street",
    "source": "SanGIS Addresses Public Domain (http://www.sangis.org/)"
  }
},
{
  "type": "node",
  "id": 596173891,
  "lat": 32.7433930,
  "lon": -117.0947780,
  "tags": {
    "addr:city": "San Diego",
    "addr:country": "US",
    "addr:housenumber": "3568",
    "addr:postcode": "92105",
    "addr:street": "Menlo Avenue",
    "source": "SanGIS Addresses Public Domain (http://www.sangis.org/)"
  }
},
{
  "type": "node",
  "id": 596175533,
  "lat": 32.6954790,
  "lon": -117.1761230,
  "tags": {
    "addr:city": "Coronado",
    "addr:country": "US",
    "addr:housenumber": "356",
    "addr:postcode": "92118",
    "addr:street": "D Avenue",
    "source": "SanGIS Addresses Public Domain (http://www.sangis.org/)"
  }
},
{
  "type": "node",
  "id": 596175559,
  "lat": 32.7845710,
  "lon": -117.2369870,
  "tags": {
    "addr:city": "San Diego",
    "addr:housenumber": "3569",
    "addr:postcode": "92109",
    "addr:street": "Promontory Street",
    "source": "SanGIS Addresses Public Domain (http://www.sangis.org/)"
  }
},
{
  "type": "node",
  "id": 596176027,
  "lat": 33.3236300,
  "lon": -117.1488070,
  "tags": {
    "addr:city": "Fallbrook",
    "addr:housenumber": "3567",
    "addr:postcode": "92028",
    "addr:street": "Lake Circle Drive",
    "source": "SanGIS Addresses Public Domain (http://www.sangis.org/)"
  }
},
{
  "type": "node",
  "id": 596177237,
  "lat": 33.2116990,
  "lon": -117.3315540,
  "tags": {
    "addr:country": "US",
    "addr:housenumber": "3567",
    "addr:street": "Buffum Drive",
    "source": "SanGIS Addresses Public Domain (http://www.sangis.org/)"
  }
},
{
  "type": "node",
  "id": 596179496,
  "lat": 32.8123760,
  "lon": -117.2100730,
  "tags": {
    "addr:city": "San Diego",
    "addr:country": "US",
    "addr:housenumber": "3562",
    "addr:postcode": "92117",
    "addr:street": "Elsinore Place",
    "source": "SanGIS Addresses Public Domain (http://www.sangis.org/)"
  }
},
{
  "type": "node",
  "id": 596179963,
  "lat": 33.2373650,
  "lon": -117.3362440,
  "tags": {
    "addr:city": "Oceanside",
    "addr:country": "US",
    "addr:housenumber": "3561",
    "addr:postcode": "92058",
    "addr:street": "Ponderosa Drive",
    "source": "SanGIS Addresses Public Domain (http://www.sangis.org/)"
  }
},
{
  "type": "node",
  "id": 596180535,
  "lat": 32.7426280,
  "lon": -117.1618860,
  "tags": {
    "addr:city": "San Diego",
    "addr:country": "US",
    "addr:housenumber": "3562",
    "addr:postcode": "92103",
    "addr:street": "4th Avenue",
    "source": "SanGIS Addresses Public Domain (http://www.sangis.org/)"
  }
},
{
  "type": "node",
  "id": 596183398,
  "lat": 32.7427200,
  "lon": -117.1657520,
  "tags": {
    "addr:city": "San Diego",
    "addr:country": "US",
    "addr:housenumber": "3565",
    "addr:postcode": "92103",
    "addr:street": "Albatross Street",
    "source": "SanGIS Addresses Public Domain (http://www.sangis.org/)"
  }
},
{
  "type": "node",
  "id": 596183438,
  "lat": 32.8107690,
  "lon": -117.0671810,
  "tags": {
    "addr:city": "San Diego",
    "addr:country": "US",
    "addr:housenumber": "3568",
    "addr:postcode": "92120",
    "addr:street": "Mission Mesa Way",
    "source": "SanGIS Addresses Public Domain (http://www.sangis.org/)"
  }
},
{
  "type": "node",
  "id": 596183989,
  "lat": 32.7432470,
  "lon": -117.1339010,
  "tags": {
    "addr:city": "San Diego",
    "addr:country": "US",
    "addr:housenumber": "3560",
    "addr:postcode": "92104",
    "addr:street": "28th Street",
    "source": "SanGIS Addresses Public Domain (http://www.sangis.org/)"
  }
},
{
  "type": "node",
  "id": 596184580,
  "lat": 32.8052810,
  "lon": -117.1973940,
  "tags": {
    "addr:city": "San Diego",
    "addr:country": "US",
    "addr:housenumber": "3567",
    "addr:postcode": "92117",
    "addr:street": "Waco Street",
    "source": "SanGIS Addresses Public Domain (http://www.sangis.org/)"
  }
},
{
  "type": "node",
  "id": 596184645,
  "lat": 32.7432180,
  "lon": -117.1397460,
  "tags": {
    "addr:city": "San Diego",
    "addr:country": "US",
    "addr:housenumber": "3567",
    "addr:postcode": "92104",
    "addr:street": "Louisiana Street",
    "source": "SanGIS Addresses Public Domain (http://www.sangis.org/)"
  }
},
{
  "type": "node",
  "id": 596186223,
  "lat": 32.8156040,
  "lon": -116.7350810,
  "tags": {
    "addr:city": "Alpine",
    "addr:country": "US",
    "addr:housenumber": "3566",
    "addr:postcode": "91901",
    "addr:street": "Calle Colina Roca",
    "source": "SanGIS Addresses Public Domain (http://www.sangis.org/)"
  }
},
{
  "type": "node",
  "id": 596186784,
  "lat": 33.1795690,
  "lon": -117.2837960,
  "tags": {
    "addr:country": "US",
    "addr:housenumber": "3563",
    "addr:street": "South Sundown Lane",
    "source": "SanGIS Addresses Public Domain (http://www.sangis.org/)"
  }
},
{
  "type": "node",
  "id": 596188133,
  "lat": 32.7432450,
  "lon": -117.1370050,
  "tags": {
    "addr:city": "San Diego",
    "addr:country": "US",
    "addr:housenumber": "3560",
    "addr:postcode": "92104",
    "addr:street": "Arnold Avenue",
    "source": "SanGIS Addresses Public Domain (http://www.sangis.org/)"
  }
},
{
  "type": "node",
  "id": 596189140,
  "lat": 32.7433860,
  "lon": -117.1041780,
  "tags": {
    "addr:city": "San Diego",
    "addr:country": "US",
    "addr:housenumber": "3565",
    "addr:postcode": "92105",
    "addr:street": "42nd Street",
    "source": "SanGIS Addresses Public Domain (http://www.sangis.org/)"
  }
},
{
  "type": "node",
  "id": 596191008,
  "lat": 32.7467450,
  "lon": -117.0127120,
  "tags": {
    "addr:city": "La Mesa",
    "addr:country": "US",
    "addr:housenumber": "3563",
    "addr:postcode": "91941",
    "addr:street": "Trophy Drive",
    "source": "SanGIS Addresses Public Domain (http://www.sangis.org/)"
  }
},
{
  "type": "node",
  "id": 596195169,
  "lat": 32.7342650,
  "lon": -117.2301280,
  "tags": {
    "addr:city": "San Diego",
    "addr:housenumber": "3564",
    "addr:postcode": "92106",
    "addr:street": "Oliphant Street",
    "source": "SanGIS Addresses Public Domain (http://www.sangis.org/)"
  }
},
{
  "type": "node",
  "id": 596195521,
  "lat": 32.7795400,
  "lon": -117.2531480,
  "tags": {
    "addr:city": "San Diego",
    "addr:housenumber": "3561",
    "addr:postcode": "92109",
    "addr:street": "Ocean Front Walk",
    "source": "SanGIS Addresses Public Domain (http://www.sangis.org/)"
  }
},
{
  "type": "node",
  "id": 596196357,
  "lat": 33.2092530,
  "lon": -116.5330060,
  "tags": {
    "addr:city": "Ranchita",
    "addr:country": "US",
    "addr:housenumber": "35683",
    "addr:postcode": "92066",
    "addr:street": "Breezy Lane",
    "source": "SanGIS Addresses Public Domain (http://www.sangis.org/)"
  }
},
{
  "type": "node",
  "id": 596196387,
  "lat": 32.7435140,
  "lon": -117.1330970,
  "tags": {
    "addr:city": "San Diego",
    "addr:country": "US",
    "addr:housenumber": "3562",
    "addr:postcode": "92104",
    "addr:street": "Utah Street",
    "source": "SanGIS Addresses Public Domain (http://www.sangis.org/)"
  }
},
{
  "type": "node",
  "id": 596197452,
  "lat": 33.1663700,
  "lon": -117.3192380,
  "tags": {
    "addr:city": "Carlsbad",
    "addr:country": "US",
    "addr:housenumber": "3565",
    "addr:postcode": "92010",
    "addr:street": "Trieste Drive",
    "source": "SanGIS Addresses Public Domain (http://www.sangis.org/)"
  }
},
{
  "type": "node",
  "id": 596197585,
  "lat": 32.7085190,
  "lon": -117.0280150,
  "tags": {
    "addr:city": "San Diego",
    "addr:country": "US",
    "addr:housenumber": "356",
    "addr:postcode": "92114",
    "addr:street": "Redcrest Drive",
    "source": "SanGIS Addresses Public Domain (http://www.sangis.org/)"
  }
},
{
  "type": "node",
  "id": 596199019,
  "lat": 32.7367840,
  "lon": -117.1174310,
  "tags": {
    "addr:city": "San Diego",
    "addr:country": "US",
    "addr:housenumber": "3560",
    "addr:postcode": "92104",
    "addr:street": "Quince Street",
    "source": "SanGIS Addresses Public Domain (http://www.sangis.org/)"
  }
},
{
  "type": "node",
  "id": 596199216,
  "lat": 33.3613420,
  "lon": -117.1860290,
  "tags": {
    "addr:city": "Fallbrook",
    "addr:housenumber": "3562",
    "addr:postcode": "92028",
    "addr:street": "Canonita Drive",
    "source": "SanGIS Addresses Public Domain (http://www.sangis.org/)"
  }
},
{
  "type": "node",
  "id": 596199345,
  "lat": 32.7453780,
  "lon": -117.0624430,
  "tags": {
    "addr:city": "San Diego",
    "addr:country": "US",
    "addr:housenumber": "3563",
    "addr:postcode": "92115",
    "addr:street": "Glade Street",
    "source": "SanGIS Addresses Public Domain (http://www.sangis.org/)"
  }
},
{
  "type": "node",
  "id": 596199921,
  "lat": 32.7431000,
  "lon": -117.1242330,
  "tags": {
    "addr:city": "San Diego",
    "addr:country": "US",
    "addr:housenumber": "3560",
    "addr:postcode": "92104",
    "addr:street": "Bancroft Street",
    "source": "SanGIS Addresses Public Domain (http://www.sangis.org/)"
  }
},
{
  "type": "node",
  "id": 596200412,
  "lat": 33.0772150,
  "lon": -117.0519250,
  "tags": {
    "addr:city": "Escondido",
    "addr:country": "US",
    "addr:housenumber": "3562",
    "addr:postcode": "92025",
    "addr:street": "Mary Lane",
    "source": "SanGIS Addresses Public Domain (http://www.sangis.org/)"
  }
},
{
  "type": "node",
  "id": 596200996,
  "lat": 33.2063200,
  "lon": -117.3387150,
  "tags": {
    "addr:city": "Oceanside",
    "addr:country": "US",
    "addr:housenumber": "3560",
    "addr:postcode": "92054",
    "addr:street": "Voyager Court",
    "source": "SanGIS Addresses Public Domain (http://www.sangis.org/)"
  }
},
{
  "type": "node",
  "id": 596201099,
  "lat": 32.7471230,
  "lon": -116.9548740,
  "tags": {
    "addr:city": "La Mesa",
    "addr:country": "US",
    "addr:housenumber": "3568",
    "addr:postcode": "91941",
    "addr:street": "Paseo Salamoner",
    "source": "SanGIS Addresses Public Domain (http://www.sangis.org/)"
  }
},
{
  "type": "node",
  "id": 596201496,
  "lat": 32.8077160,
  "lon": -117.1363100,
  "tags": {
    "addr:city": "San Diego",
    "addr:country": "US",
    "addr:housenumber": "3565",
    "addr:postcode": "92123",
    "addr:street": "Ediwhar Avenue",
    "source": "SanGIS Addresses Public Domain (http://www.sangis.org/)"
  }
},
{
  "type": "node",
  "id": 596202133,
  "lat": 32.7476890,
  "lon": -117.0138560,
  "tags": {
    "addr:city": "La Mesa",
    "addr:country": "US",
    "addr:housenumber": "3569",
    "addr:postcode": "91941",
    "addr:street": "Fairway Drive",
    "source": "SanGIS Addresses Public Domain (http://www.sangis.org/)"
  }
},
{
  "type": "node",
  "id": 596205397,
  "lat": 33.1669444,
  "lon": -117.2672900,
  "tags": {
    "addr:country": "US",
    "addr:housenumber": "3560",
    "addr:street": "Pirgos Way",
    "source": "SanGIS Addresses Public Domain (http://www.sangis.org/)"
  }
},
{
  "type": "node",
  "id": 596205620,
  "lat": 33.1808140,
  "lon": -117.2713670,
  "tags": {
    "addr:city": "Oceanside",
    "addr:country": "US",
    "addr:housenumber": "3562",
    "addr:postcode": "92056",
    "addr:street": "Evening Canyon Road",
    "source": "SanGIS Addresses Public Domain (http://www.sangis.org/)"
  }
},
{
  "type": "node",
  "id": 596205765,
  "lat": 33.3861760,
  "lon": -117.2543980,
  "tags": {
    "addr:city": "Fallbrook",
    "addr:housenumber": "356",
    "addr:postcode": "92028",
    "addr:street": "West Dougherty Street",
    "source": "SanGIS Addresses Public Domain (http://www.sangis.org/)"
  }
},
{
  "type": "node",
  "id": 596208452,
  "lat": 33.0677640,
  "lon": -117.2280000,
  "tags": {
    "addr:housenumber": "3563",
    "addr:street": "Corte Rosado",
    "source": "SanGIS Addresses Public Domain (http://www.sangis.org/)"
  }
},
{
  "type": "node",
  "id": 596208696,
  "lat": 33.0761070,
  "lon": -116.5563360,
  "tags": {
    "addr:country": "US",
    "addr:housenumber": "35686",
    "addr:street": "Highway 78",
    "source": "SanGIS Addresses Public Domain (http://www.sangis.org/)"
  }
},
{
  "type": "node",
  "id": 596209941,
  "lat": 32.5482920,
  "lon": -117.0530410,
  "tags": {
    "addr:city": "San Ysidro",
    "addr:country": "US",
    "addr:housenumber": "3564",
    "addr:postcode": "92173",
    "addr:street": "Janse Way",
    "source": "SanGIS Addresses Public Domain (http://www.sangis.org/)"
  }
},
{
  "type": "node",
  "id": 596210847,
  "lat": 32.7432470,
  "lon": -117.1377040,
  "tags": {
    "addr:city": "San Diego",
    "addr:country": "US",
    "addr:housenumber": "3561",
    "addr:postcode": "92104",
    "addr:street": "Arizona Street",
    "source": "SanGIS Addresses Public Domain (http://www.sangis.org/)"
  }
},
{
  "type": "node",
  "id": 596210954,
  "lat": 32.7446810,
  "lon": -117.0263380,
  "tags": {
    "addr:city": "Lemon Grove",
    "addr:country": "US",
    "addr:housenumber": "3565",
    "addr:postcode": "91945",
    "addr:street": "Grove Street",
    "source": "SanGIS Addresses Public Domain (http://www.sangis.org/)"
  }
},
{
  "type": "node",
  "id": 596211904,
  "lat": 32.7426090,
  "lon": -116.9923700,
  "tags": {
    "addr:city": "Spring Valley",
    "addr:country": "US",
    "addr:housenumber": "3564",
    "addr:postcode": "91977",
    "addr:street": "Boyne Street",
    "source": "SanGIS Addresses Public Domain (http://www.sangis.org/)"
  }
},
{
  "type": "node",
  "id": 596213761,
  "lat": 32.7372950,
  "lon": -117.2275710,
  "tags": {
    "addr:city": "San Diego",
    "addr:housenumber": "3560",
    "addr:postcode": "92106",
    "addr:street": "Tennyson Street",
    "source": "SanGIS Addresses Public Domain (http://www.sangis.org/)"
  }
},
{
  "type": "node",
  "id": 596213820,
  "lat": 32.7301355,
  "lon": -117.2342480,
  "tags": {
    "addr:city": "San Diego",
    "addr:housenumber": "3564",
    "addr:postcode": "92106",
    "addr:street": "Hugo Street",
    "source": "SanGIS Addresses Public Domain (http://www.sangis.org/)"
  }
},
{
  "type": "node",
  "id": 596213839,
  "lat": 33.2116230,
  "lon": -117.3382790,
  "tags": {
    "addr:city": "Oceanside",
    "addr:country": "US",
    "addr:housenumber": "3564",
    "addr:postcode": "92054",
    "addr:street": "Starboard Circle",
    "source": "SanGIS Addresses Public Domain (http://www.sangis.org/)"
  }
},
{
  "type": "node",
  "id": 596215899,
  "lat": 32.7444150,
  "lon": -117.1811860,
  "tags": {
    "addr:city": "San Diego",
    "addr:country": "US",
    "addr:housenumber": "3569",
    "addr:postcode": "92110",
    "addr:street": "Keating Street",
    "source": "SanGIS Addresses Public Domain (http://www.sangis.org/)"
  }
},
{
  "type": "node",
  "id": 596217732,
  "lat": 32.7432580,
  "lon": -117.0969420,
  "tags": {
    "addr:city": "San Diego",
    "addr:country": "US",
    "addr:housenumber": "3562",
    "addr:postcode": "92105",
    "addr:street": "Chamoune Avenue",
    "source": "SanGIS Addresses Public Domain (http://www.sangis.org/)"
  }
},
{
  "type": "node",
  "id": 596219772,
  "lat": 33.1934790,
  "lon": -117.2974440,
  "tags": {
    "addr:city": "Oceanside",
    "addr:country": "US",
    "addr:housenumber": "3560",
    "addr:postcode": "92056",
    "addr:street": "Roselle Street",
    "source": "SanGIS Addresses Public Domain (http://www.sangis.org/)"
  }
},
{
  "type": "node",
  "id": 596220329,
  "lat": 33.1524470,
  "lon": -117.1976340,
  "tags": {
    "addr:city": "San Marcos",
    "addr:housenumber": "3568",
    "addr:postcode": "92069",
    "addr:street": "De Leone Road",
    "source": "SanGIS Addresses Public Domain (http://www.sangis.org/)"
  }
},
{
  "type": "node",
  "id": 596222947,
  "lat": 33.0423220,
  "lon": -117.2334760,
  "tags": {
    "addr:housenumber": "356",
    "addr:street": "Rosemary Lane",
    "source": "SanGIS Addresses Public Domain (http://www.sangis.org/)"
  }
},
{
  "type": "node",
  "id": 596223504,
  "lat": 32.6917710,
  "lon": -117.1166060,
  "tags": {
    "addr:city": "San Diego",
    "addr:country": "US",
    "addr:housenumber": "3567",
    "addr:postcode": "92113",
    "addr:street": "Silktree Trail",
    "source": "SanGIS Addresses Public Domain (http://www.sangis.org/)"
  }
},
{
  "type": "node",
  "id": 596225929,
  "lat": 33.1853480,
  "lon": -117.3073310,
  "tags": {
    "addr:city": "Oceanside",
    "addr:country": "US",
    "addr:housenumber": "3561",
    "addr:postcode": "92056",
    "addr:street": "Santa Maria Street",
    "source": "SanGIS Addresses Public Domain (http://www.sangis.org/)"
  }
},
{
  "type": "node",
  "id": 596228104,
  "lat": 32.8092360,
  "lon": -117.2669020,
  "tags": {
    "addr:city": "La Jolla",
    "addr:country": "US",
    "addr:housenumber": "356",
    "addr:postcode": "92037",
    "addr:street": "Bandera Street",
    "source": "SanGIS Addresses Public Domain (http://www.sangis.org/)"
  }
},
{
  "type": "node",
  "id": 596230003,
  "lat": 32.7841080,
  "lon": -117.2343120,
  "tags": {
    "addr:city": "San Diego",
    "addr:housenumber": "3560",
    "addr:postcode": "92109",
    "addr:street": "Crown Point Drive",
    "source": "SanGIS Addresses Public Domain (http://www.sangis.org/)"
  }
},
{
  "type": "node",
  "id": 596230036,
  "lat": 32.7433770,
  "lon": -117.1360370,
  "tags": {
    "addr:city": "San Diego",
    "addr:country": "US",
    "addr:housenumber": "3568",
    "addr:postcode": "92104",
    "addr:street": "Villa Terrace",
    "source": "SanGIS Addresses Public Domain (http://www.sangis.org/)"
  }
},
{
  "type": "node",
  "id": 596230747,
  "lat": 32.8091830,
  "lon": -117.1745690,
  "tags": {
    "addr:city": "San Diego",
    "addr:country": "US",
    "addr:housenumber": "3569",
    "addr:postcode": "92111",
    "addr:street": "Brookshire Street",
    "source": "SanGIS Addresses Public Domain (http://www.sangis.org/)"
  }
},
{
  "type": "node",
  "id": 596232676,
  "lat": 32.8074580,
  "lon": -117.1798190,
  "tags": {
    "addr:city": "San Diego",
    "addr:country": "US",
    "addr:housenumber": "3567",
    "addr:postcode": "92111",
    "addr:street": "Accomac Avenue",
    "source": "SanGIS Addresses Public Domain (http://www.sangis.org/)"
  }
},
{
  "type": "node",
  "id": 596234182,
  "lat": 32.7425970,
  "lon": -117.1675535,
  "tags": {
    "addr:city": "San Diego",
    "addr:country": "US",
    "addr:housenumber": "3560",
    "addr:postcode": "92103",
    "addr:street": "Curlew Street",
    "source": "SanGIS Addresses Public Domain (http://www.sangis.org/)"
  }
},
{
  "type": "node",
  "id": 596234766,
  "lat": 32.7425870,
  "lon": -117.1664100,
  "tags": {
    "addr:city": "San Diego",
    "addr:country": "US",
    "addr:housenumber": "3560",
    "addr:postcode": "92103",
    "addr:street": "Albatross Street",
    "source": "SanGIS Addresses Public Domain (http://www.sangis.org/)"
  }
},
{
  "type": "node",
  "id": 596234982,
  "lat": 32.8053420,
  "lon": -117.2014630,
  "tags": {
    "addr:city": "San Diego",
    "addr:country": "US",
    "addr:housenumber": "3567",
    "addr:postcode": "92117",
    "addr:street": "Ottawa Avenue",
    "source": "SanGIS Addresses Public Domain (http://www.sangis.org/)"
  }
},
{
  "type": "node",
  "id": 596235756,
  "lat": 32.8088560,
  "lon": -117.1718790,
  "tags": {
    "addr:city": "San Diego",
    "addr:country": "US",
    "addr:housenumber": "3560",
    "addr:postcode": "92111",
    "addr:street": "Auburndale Street",
    "source": "SanGIS Addresses Public Domain (http://www.sangis.org/)"
  }
},
{
  "type": "node",
  "id": 596237417,
  "lat": 32.7443590,
  "lon": -117.0390380,
  "tags": {
    "addr:city": "Lemon Grove",
    "addr:country": "US",
    "addr:housenumber": "3565",
    "addr:postcode": "91945",
    "addr:street": "Harris Street",
    "source": "SanGIS Addresses Public Domain (http://www.sangis.org/)"
  }
},
{
  "type": "node",
  "id": 596237968,
  "lat": 32.7370750,
  "lon": -116.9123830,
  "tags": {
    "addr:city": "El Cajon",
    "addr:country": "US",
    "addr:housenumber": "3564",
    "addr:postcode": "92019",
    "addr:street": "Rancho Diego Circle",
    "source": "SanGIS Addresses Public Domain (http://www.sangis.org/)"
  }
},
{
  "type": "node",
  "id": 596239083,
  "lat": 33.1851390,
  "lon": -117.3071770,
  "tags": {
    "addr:city": "Oceanside",
    "addr:country": "US",
    "addr:housenumber": "3568",
    "addr:postcode": "92056",
    "addr:street": "Mira Pacific Drive",
    "source": "SanGIS Addresses Public Domain (http://www.sangis.org/)"
  }
},
{
  "type": "node",
  "id": 596247068,
  "lat": 33.3735880,
  "lon": -117.2472350,
  "tags": {
    "addr:city": "Fallbrook",
    "addr:housenumber": "356",
    "addr:postcode": "92028",
    "addr:street": "Retreat Court",
    "source": "SanGIS Addresses Public Domain (http://www.sangis.org/)"
  }
},
{
  "type": "node",
  "id": 596250643,
  "lat": 32.8250610,
  "lon": -117.2100300,
  "tags": {
    "addr:city": "San Diego",
    "addr:country": "US",
    "addr:housenumber": "3563",
    "addr:postcode": "92117",
    "addr:street": "Hatteras Avenue",
    "source": "SanGIS Addresses Public Domain (http://www.sangis.org/)"
  }
},
{
  "type": "node",
  "id": 596253716,
  "lat": 32.7432450,
  "lon": -117.1360370,
  "tags": {
    "addr:city": "San Diego",
    "addr:country": "US",
    "addr:housenumber": "3562",
    "addr:postcode": "92104",
    "addr:street": "Villa Terrace",
    "source": "SanGIS Addresses Public Domain (http://www.sangis.org/)"
  }
},
{
  "type": "node",
  "id": 596258162,
  "lat": 32.8076200,
  "lon": -117.1367650,
  "tags": {
    "addr:city": "San Diego",
    "addr:country": "US",
    "addr:housenumber": "3562",
    "addr:postcode": "92123",
    "addr:street": "Ediwhar Avenue",
    "source": "SanGIS Addresses Public Domain (http://www.sangis.org/)"
  }
},
{
  "type": "node",
  "id": 596259246,
  "lat": 33.1869310,
  "lon": -117.3015680,
  "tags": {
    "addr:city": "Oceanside",
    "addr:country": "US",
    "addr:housenumber": "3565",
    "addr:postcode": "92056",
    "addr:street": "Strawberry Place",
    "source": "SanGIS Addresses Public Domain (http://www.sangis.org/)"
  }
},
{
  "type": "node",
  "id": 596259406,
  "lat": 32.8090820,
  "lon": -117.1741190,
  "tags": {
    "addr:city": "San Diego",
    "addr:country": "US",
    "addr:housenumber": "3568",
    "addr:postcode": "92111",
    "addr:street": "Fireway Drive",
    "source": "SanGIS Addresses Public Domain (http://www.sangis.org/)"
  }
},
{
  "type": "node",
  "id": 596259794,
  "lat": 32.6920090,
  "lon": -117.1170080,
  "tags": {
    "addr:city": "San Diego",
    "addr:country": "US",
    "addr:housenumber": "3560",
    "addr:postcode": "92113",
    "addr:street": "Silktree Trail",
    "source": "SanGIS Addresses Public Domain (http://www.sangis.org/)"
  }
},
{
  "type": "node",
  "id": 596262378,
  "lat": 33.1771020,
  "lon": -117.2630190,
  "tags": {
    "addr:country": "US",
    "addr:housenumber": "3566",
    "addr:street": "Newland Road",
    "source": "SanGIS Addresses Public Domain (http://www.sangis.org/)"
  }
},
{
  "type": "node",
  "id": 596262723,
  "lat": 32.7433820,
  "lon": -117.1036590,
  "tags": {
    "addr:city": "San Diego",
    "addr:country": "US",
    "addr:housenumber": "3566",
    "addr:postcode": "92105",
    "addr:street": "Van Dyke Avenue",
    "source": "SanGIS Addresses Public Domain (http://www.sangis.org/)"
  }
},
{
  "type": "node",
  "id": 596263143,
  "lat": 32.7433150,
  "lon": -117.0980210,
  "tags": {
    "addr:city": "San Diego",
    "addr:country": "US",
    "addr:housenumber": "3564",
    "addr:postcode": "92105",
    "addr:street": "45th Street",
    "source": "SanGIS Addresses Public Domain (http://www.sangis.org/)"
  }
},
{
  "type": "node",
  "id": 596263557,
  "lat": 32.7425920,
  "lon": -117.1652800,
  "tags": {
    "addr:city": "San Diego",
    "addr:country": "US",
    "addr:housenumber": "3560",
    "addr:postcode": "92103",
    "addr:street": "Front Street",
    "source": "SanGIS Addresses Public Domain (http://www.sangis.org/)"
  }
},
{
  "type": "node",
  "id": 596264214,
  "lat": 32.7271055,
  "lon": -117.2367432,
  "tags": {
    "addr:city": "San Diego",
    "addr:housenumber": "3562",
    "addr:postcode": "92106",
    "addr:street": "Addison Street",
    "source": "SanGIS Addresses Public Domain (http://www.sangis.org/)"
  }
},
{
  "type": "node",
  "id": 596264230,
  "lat": 32.7433980,
  "lon": -117.1066480,
  "tags": {
    "addr:city": "San Diego",
    "addr:country": "US",
    "addr:housenumber": "3563",
    "addr:postcode": "92105",
    "addr:street": "41st Street",
    "source": "SanGIS Addresses Public Domain (http://www.sangis.org/)"
  }
},
{
  "type": "node",
  "id": 596264413,
  "lat": 33.1849080,
  "lon": -117.3073930,
  "tags": {
    "addr:city": "Oceanside",
    "addr:country": "US",
    "addr:housenumber": "3564",
    "addr:postcode": "92056",
    "addr:street": "Mira Pacific Drive",
    "source": "SanGIS Addresses Public Domain (http://www.sangis.org/)"
  }
},
{
  "type": "node",
  "id": 596269862,
  "lat": 33.1725190,
  "lon": -117.2972090,
  "tags": {
    "addr:country": "US",
    "addr:housenumber": "3564",
    "addr:street": "Bluff Court",
    "source": "SanGIS Addresses Public Domain (http://www.sangis.org/)"
  }
},
{
  "type": "node",
  "id": 596273018,
  "lat": 32.7015820,
  "lon": -117.1174030,
  "tags": {
    "addr:city": "San Diego",
    "addr:country": "US",
    "addr:housenumber": "3562",
    "addr:postcode": "92113",
    "addr:street": "Ocean View Boulevard",
    "source": "SanGIS Addresses Public Domain (http://www.sangis.org/)"
  }
},
{
  "type": "node",
  "id": 596281865,
  "lat": 32.5873210,
  "lon": -117.0576980,
  "tags": {
    "addr:city": "San Diego",
    "addr:country": "US",
    "addr:housenumber": "3560",
    "addr:postcode": "92154",
    "addr:street": "Lindbergh Street",
    "source": "SanGIS Addresses Public Domain (http://www.sangis.org/)"
  }
},
{
  "type": "node",
  "id": 596288634,
  "lat": 33.3881917,
  "lon": -117.1858668,
  "tags": {
    "addr:housenumber": "3565",
    "addr:street": "Rosa Way",
    "source": "SanGIS Addresses Public Domain (http://www.sangis.org/)"
  }
},
{
  "type": "node",
  "id": 596290888,
  "lat": 32.6952000,
  "lon": -117.0406590,
  "tags": {
    "addr:city": "San Diego",
    "addr:country": "US",
    "addr:housenumber": "356",
    "addr:postcode": "92114",
    "addr:street": "Northgate Street",
    "source": "SanGIS Addresses Public Domain (http://www.sangis.org/)"
  }
},
{
  "type": "node",
  "id": 596299580,
  "lat": 33.1792270,
  "lon": -117.2797340,
  "tags": {
    "addr:country": "US",
    "addr:housenumber": "3568",
    "addr:street": "Sky Haven Lane",
    "source": "SanGIS Addresses Public Domain (http://www.sangis.org/)"
  }
},
{
  "type": "node",
  "id": 596302831,
  "lat": 32.7434350,
  "lon": -117.1073530,
  "tags": {
    "addr:city": "San Diego",
    "addr:country": "US",
    "addr:housenumber": "3566",
    "addr:postcode": "92105",
    "addr:street": "41st Street",
    "source": "SanGIS Addresses Public Domain (http://www.sangis.org/)"
  }
},
{
  "type": "node",
  "id": 596304851,
  "lat": 32.7433480,
  "lon": -117.1048900,
  "tags": {
    "addr:city": "San Diego",
    "addr:country": "US",
    "addr:housenumber": "3566",
    "addr:postcode": "92105",
    "addr:street": "42nd Street",
    "source": "SanGIS Addresses Public Domain (http://www.sangis.org/)"
  }
},
{
  "type": "node",
  "id": 596305878,
  "lat": 32.5506420,
  "lon": -117.0534270,
  "tags": {
    "addr:city": "San Ysidro",
    "addr:country": "US",
    "addr:housenumber": "3568",
    "addr:postcode": "92173",
    "addr:street": "Deaver Lane",
    "source": "SanGIS Addresses Public Domain (http://www.sangis.org/)"
  }
},
{
  "type": "node",
  "id": 596318049,
  "lat": 33.3234690,
  "lon": -117.1505340,
  "tags": {
    "addr:city": "Fallbrook",
    "addr:housenumber": "3561",
    "addr:postcode": "92028",
    "addr:street": "Lake Shore Avenue",
    "source": "SanGIS Addresses Public Domain (http://www.sangis.org/)"
  }
},
{
  "type": "node",
  "id": 596323680,
  "lat": 32.7432060,
  "lon": -117.1382110,
  "tags": {
    "addr:city": "San Diego",
    "addr:country": "US",
    "addr:housenumber": "3568",
    "addr:postcode": "92104",
    "addr:street": "Arizona Street",
    "source": "SanGIS Addresses Public Domain (http://www.sangis.org/)"
  }
},
{
  "type": "node",
  "id": 596329978,
  "lat": 32.8089830,
  "lon": -117.1718070,
  "tags": {
    "addr:city": "San Diego",
    "addr:country": "US",
    "addr:housenumber": "3568",
    "addr:postcode": "92111",
    "addr:street": "Auburndale Street",
    "source": "SanGIS Addresses Public Domain (http://www.sangis.org/)"
  }
},
{
  "type": "node",
  "id": 596331162,
  "lat": 32.7433760,
  "lon": -117.1375000,
  "tags": {
    "addr:city": "San Diego",
    "addr:country": "US",
    "addr:housenumber": "3568",
    "addr:postcode": "92104",
    "addr:street": "Park Villa Drive",
    "source": "SanGIS Addresses Public Domain (http://www.sangis.org/)"
  }
},
{
  "type": "node",
  "id": 596331230,
  "lat": 33.1795370,
  "lon": -117.2841400,
  "tags": {
    "addr:city": "Oceanside",
    "addr:country": "US",
    "addr:housenumber": "3561",
    "addr:postcode": "92056",
    "addr:street": "Surf Place",
    "source": "SanGIS Addresses Public Domain (http://www.sangis.org/)"
  }
},
{
  "type": "node",
  "id": 596333225,
  "lat": 32.5961410,
  "lon": -117.0671970,
  "tags": {
    "addr:city": "Chula Vista",
    "addr:country": "US",
    "addr:housenumber": "356",
    "addr:postcode": "91911",
    "addr:street": "Zenith Street",
    "source": "SanGIS Addresses Public Domain (http://www.sangis.org/)"
  }
},
{
  "type": "node",
  "id": 596342814,
  "lat": 33.3236240,
  "lon": -117.1496960,
  "tags": {
    "addr:city": "Fallbrook",
    "addr:housenumber": "3563",
    "addr:postcode": "92028",
    "addr:street": "Lake Park Avenue",
    "source": "SanGIS Addresses Public Domain (http://www.sangis.org/)"
  }
},
{
  "type": "node",
  "id": 596344093,
  "lat": 33.1712060,
  "lon": -117.2963630,
  "tags": {
    "addr:country": "US",
    "addr:housenumber": "3563",
    "addr:street": "Pebble Street",
    "source": "SanGIS Addresses Public Domain (http://www.sangis.org/)"
  }
},
{
  "type": "node",
  "id": 596344761,
  "lat": 33.1654250,
  "lon": -117.3217660,
  "tags": {
    "addr:country": "US",
    "addr:housenumber": "3561",
    "addr:street": "Celinda Drive",
    "source": "SanGIS Addresses Public Domain (http://www.sangis.org/)"
  }
},
{
  "type": "node",
  "id": 596347790,
  "lat": 33.1797800,
  "lon": -117.2841430,
  "tags": {
    "addr:city": "Oceanside",
    "addr:country": "US",
    "addr:housenumber": "3569",
    "addr:postcode": "92056",
    "addr:street": "Surf Place",
    "source": "SanGIS Addresses Public Domain (http://www.sangis.org/)"
  }
},
{
  "type": "node",
  "id": 596350202,
  "lat": 32.7430810,
  "lon": -117.1382240,
  "tags": {
    "addr:city": "San Diego",
    "addr:country": "US",
    "addr:housenumber": "3560",
    "addr:postcode": "92104",
    "addr:street": "Arizona Street",
    "source": "SanGIS Addresses Public Domain (http://www.sangis.org/)"
  }
},
{
  "type": "node",
  "id": 596354094,
  "lat": 32.7475210,
  "lon": -117.0139630,
  "tags": {
    "addr:city": "La Mesa",
    "addr:country": "US",
    "addr:housenumber": "3565",
    "addr:postcode": "91941",
    "addr:street": "Fairway Drive",
    "source": "SanGIS Addresses Public Domain (http://www.sangis.org/)"
  }
},
{
  "type": "node",
  "id": 596361436,
  "lat": 32.7352620,
  "lon": -117.2293290,
  "tags": {
    "addr:city": "San Diego",
    "addr:housenumber": "3563",
    "addr:postcode": "92106",
    "addr:street": "Poe Street",
    "source": "SanGIS Addresses Public Domain (http://www.sangis.org/)"
  }
},
{
  "type": "node",
  "id": 596362973,
  "lat": 32.7429150,
  "lon": -117.1203610,
  "tags": {
    "addr:city": "San Diego",
    "addr:country": "US",
    "addr:housenumber": "3560",
    "addr:postcode": "92104",
    "addr:street": "Nile Street",
    "source": "SanGIS Addresses Public Domain (http://www.sangis.org/)"
  }
},
{
  "type": "node",
  "id": 596374187,
  "lat": 33.1698770,
  "lon": -117.0881880,
  "tags": {
    "addr:country": "US",
    "addr:housenumber": "356",
    "addr:street": "Melbourne Glen",
    "source": "SanGIS Addresses Public Domain (http://www.sangis.org/)"
  }
},
{
  "type": "node",
  "id": 596376766,
  "lat": 32.7425240,
  "lon": -117.1591910,
  "tags": {
    "addr:city": "San Diego",
    "addr:country": "US",
    "addr:housenumber": "3563",
    "addr:postcode": "92103",
    "addr:street": "6th Avenue",
    "source": "SanGIS Addresses Public Domain (http://www.sangis.org/)"
  }
},
{
  "type": "node",
  "id": 596377122,
  "lat": 32.7426450,
  "lon": -117.1597820,
  "tags": {
    "addr:city": "San Diego",
    "addr:country": "US",
    "addr:housenumber": "3560",
    "addr:postcode": "92103",
    "addr:street": "6th Avenue",
    "source": "SanGIS Addresses Public Domain (http://www.sangis.org/)"
  }
},
{
  "type": "node",
  "id": 596379996,
  "lat": 33.1462350,
  "lon": -117.2030260,
  "tags": {
    "addr:city": "San Marcos",
    "addr:housenumber": "3568",
    "addr:postcode": "92078",
    "addr:street": "9th Street",
    "source": "SanGIS Addresses Public Domain (http://www.sangis.org/)"
  }
},
{
  "type": "node",
  "id": 596382347,
  "lat": 32.7432480,
  "lon": -117.1349540,
  "tags": {
    "addr:city": "San Diego",
    "addr:country": "US",
    "addr:housenumber": "3562",
    "addr:postcode": "92104",
    "addr:street": "Pershing Avenue",
    "source": "SanGIS Addresses Public Domain (http://www.sangis.org/)"
  }
},
{
  "type": "node",
  "id": 596383472,
  "lat": 32.8087530,
  "lon": -117.1584440,
  "tags": {
    "addr:city": "San Diego",
    "addr:country": "US",
    "addr:housenumber": "3566",
    "addr:postcode": "92111",
    "addr:street": "Atlas Street",
    "source": "SanGIS Addresses Public Domain (http://www.sangis.org/)"
  }
},
{
  "type": "node",
  "id": 596385650,
  "lat": 33.2110620,
  "lon": -117.3382720,
  "tags": {
    "addr:city": "Oceanside",
    "addr:country": "US",
    "addr:housenumber": "3565",
    "addr:postcode": "92054",
    "addr:street": "Starboard Circle",
    "source": "SanGIS Addresses Public Domain (http://www.sangis.org/)"
  }
},
{
  "type": "node",
  "id": 596389247,
  "lat": 32.7427560,
  "lon": -117.1630420,
  "tags": {
    "addr:city": "San Diego",
    "addr:country": "US",
    "addr:housenumber": "3568",
    "addr:postcode": "92103",
    "addr:street": "3rd Avenue",
    "source": "SanGIS Addresses Public Domain (http://www.sangis.org/)"
  }
},
{
  "type": "node",
  "id": 596390865,
  "lat": 32.7433280,
  "lon": -117.0937000,
  "tags": {
    "addr:city": "San Diego",
    "addr:country": "US",
    "addr:housenumber": "3562",
    "addr:postcode": "92105",
    "addr:street": "47th Street",
    "source": "SanGIS Addresses Public Domain (http://www.sangis.org/)"
  }
},
{
  "type": "node",
  "id": 596390969,
  "lat": 32.5503030,
  "lon": -117.0537030,
  "tags": {
    "addr:city": "San Ysidro",
    "addr:country": "US",
    "addr:housenumber": "3565",
    "addr:postcode": "92173",
    "addr:street": "Deaver Lane",
    "source": "SanGIS Addresses Public Domain (http://www.sangis.org/)"
  }
},
{
  "type": "node",
  "id": 596395212,
  "lat": 32.7451496,
  "lon": -117.0092373,
  "tags": {
    "addr:city": "Spring Valley",
    "addr:country": "US",
    "addr:housenumber": "3563",
    "addr:postcode": "91977",
    "addr:street": "Hartzel Crest",
    "source": "SanGIS Addresses Public Domain (http://www.sangis.org/)"
  }
},
{
  "type": "node",
  "id": 596396145,
  "lat": 32.5770150,
  "lon": -117.0579820,
  "tags": {
    "addr:city": "San Diego",
    "addr:country": "US",
    "addr:housenumber": "3560",
    "addr:postcode": "92154",
    "addr:street": "Majestic Drive",
    "source": "SanGIS Addresses Public Domain (http://www.sangis.org/)"
  }
},
{
  "type": "node",
  "id": 596398963,
  "lat": 32.8088630,
  "lon": -117.1619210,
  "tags": {
    "addr:city": "San Diego",
    "addr:country": "US",
    "addr:housenumber": "3562",
    "addr:postcode": "92111",
    "addr:street": "Armstrong Street",
    "source": "SanGIS Addresses Public Domain (http://www.sangis.org/)"
  }
},
{
  "type": "node",
  "id": 596399655,
  "lat": 33.0660670,
  "lon": -117.2282880,
  "tags": {
    "addr:housenumber": "3560",
    "addr:street": "Avenida Pantera",
    "source": "SanGIS Addresses Public Domain (http://www.sangis.org/)"
  }
},
{
  "type": "node",
  "id": 596404089,
  "lat": 32.7279210,
  "lon": -117.2359410,
  "tags": {
    "addr:city": "San Diego",
    "addr:housenumber": "3566",
    "addr:postcode": "92106",
    "addr:street": "Carleton Street",
    "source": "SanGIS Addresses Public Domain (http://www.sangis.org/)"
  }
},
{
  "type": "node",
  "id": 596410298,
  "lat": 33.1797220,
  "lon": -117.2841460,
  "tags": {
    "addr:city": "Oceanside",
    "addr:country": "US",
    "addr:housenumber": "3567",
    "addr:postcode": "92056",
    "addr:street": "Surf Place",
    "source": "SanGIS Addresses Public Domain (http://www.sangis.org/)"
  }
},
{
  "type": "node",
  "id": 596414718,
  "lat": 32.7432450,
  "lon": -117.1374980,
  "tags": {
    "addr:city": "San Diego",
    "addr:country": "US",
    "addr:housenumber": "3562",
    "addr:postcode": "92104",
    "addr:street": "Park Villa Drive",
    "source": "SanGIS Addresses Public Domain (http://www.sangis.org/)"
  }
},
{
  "type": "node",
  "id": 596417040,
  "lat": 32.8070341,
  "lon": -117.1875317,
  "tags": {
    "addr:city": "San Diego",
    "addr:country": "US",
    "addr:housenumber": "3564",
    "addr:postcode": "92111",
    "addr:state": "CA",
    "addr:street": "Mount Everest Boulevard",
    "source": "SanGIS Addresses Public Domain (http://www.sangis.org/)"
  }
},
{
  "type": "node",
  "id": 596417603,
  "lat": 32.7423880,
  "lon": -117.1587080,
  "tags": {
    "addr:city": "San Diego",
    "addr:country": "US",
    "addr:housenumber": "3560",
    "addr:postcode": "92103",
    "addr:street": "7th Avenue",
    "source": "SanGIS Addresses Public Domain (http://www.sangis.org/)"
  }
},
{
  "type": "node",
  "id": 596419820,
  "lat": 32.7840270,
  "lon": -117.2389650,
  "tags": {
    "addr:city": "San Diego",
    "addr:housenumber": "3560",
    "addr:postcode": "92109",
    "addr:street": "Buena Vista Street",
    "source": "SanGIS Addresses Public Domain (http://www.sangis.org/)"
  }
},
{
  "type": "node",
  "id": 596421313,
  "lat": 32.7427610,
  "lon": -117.1623740,
  "tags": {
    "addr:city": "San Diego",
    "addr:country": "US",
    "addr:housenumber": "3565",
    "addr:postcode": "92103",
    "addr:street": "3rd Avenue",
    "source": "SanGIS Addresses Public Domain (http://www.sangis.org/)"
  }
},
{
  "type": "node",
  "id": 596426305,
  "lat": 32.9218280,
  "lon": -117.2347320,
  "tags": {
    "addr:city": "San Diego",
    "addr:housenumber": "3568",
    "addr:postcode": "92130",
    "addr:street": "Torrey View Court",
    "source": "SanGIS Addresses Public Domain (http://www.sangis.org/)"
  }
},
{
  "type": "node",
  "id": 596427961,
  "lat": 32.8106770,
  "lon": -117.0672720,
  "tags": {
    "addr:city": "San Diego",
    "addr:country": "US",
    "addr:housenumber": "3564",
    "addr:postcode": "92120",
    "addr:street": "Mission Mesa Way",
    "source": "SanGIS Addresses Public Domain (http://www.sangis.org/)"
  }
},
{
  "type": "node",
  "id": 596429661,
  "lat": 33.1784570,
  "lon": -117.2657590,
  "tags": {
    "addr:city": "Oceanside",
    "addr:country": "US",
    "addr:housenumber": "3566",
    "addr:postcode": "92056",
    "addr:street": "Ridge Road",
    "source": "SanGIS Addresses Public Domain (http://www.sangis.org/)"
  }
},
{
  "type": "node",
  "id": 596431520,
  "lat": 32.7433800,
  "lon": -117.1372090,
  "tags": {
    "addr:city": "San Diego",
    "addr:country": "US",
    "addr:housenumber": "3569",
    "addr:postcode": "92104",
    "addr:street": "Park Villa Drive",
    "source": "SanGIS Addresses Public Domain (http://www.sangis.org/)"
  }
},
{
  "type": "node",
  "id": 596431672,
  "lat": 32.6238000,
  "lon": -117.0446280,
  "tags": {
    "addr:city": "Chula Vista",
    "addr:country": "US",
    "addr:housenumber": "356",
    "addr:postcode": "91911",
    "addr:street": "Inkopah Street",
    "source": "SanGIS Addresses Public Domain (http://www.sangis.org/)"
  }
},
{
  "type": "node",
  "id": 596432510,
  "lat": 33.0650730,
  "lon": -117.2006270,
  "tags": {
    "addr:city": "Encinitas",
    "addr:country": "US",
    "addr:housenumber": "3563",
    "addr:postcode": "92024",
    "addr:street": "Fortuna Ranch Road",
    "source": "SanGIS Addresses Public Domain (http://www.sangis.org/)"
  }
},
{
  "type": "node",
  "id": 596432940,
  "lat": 33.1867090,
  "lon": -117.3014360,
  "tags": {
    "addr:city": "Oceanside",
    "addr:country": "US",
    "addr:housenumber": "3568",
    "addr:postcode": "92056",
    "addr:street": "Strawberry Place",
    "source": "SanGIS Addresses Public Domain (http://www.sangis.org/)"
  }
},
{
  "type": "node",
  "id": 596437756,
  "lat": 32.8076150,
  "lon": -117.1370790,
  "tags": {
    "addr:city": "San Diego",
    "addr:country": "US",
    "addr:housenumber": "3561",
    "addr:postcode": "92123",
    "addr:street": "Unida Place",
    "source": "SanGIS Addresses Public Domain (http://www.sangis.org/)"
  }
},
{
  "type": "node",
  "id": 596440642,
  "lat": 32.7393260,
  "lon": -117.1808380,
  "tags": {
    "addr:city": "San Diego",
    "addr:country": "US",
    "addr:housenumber": "3569",
    "addr:postcode": "92101",
    "addr:street": "Pacific Highway",
    "source": "SanGIS Addresses Public Domain (http://www.sangis.org/)"
  }
},
{
  "type": "node",
  "id": 596441124,
  "lat": 33.0784370,
  "lon": -117.0469950,
  "tags": {
    "addr:city": "Escondido",
    "addr:country": "US",
    "addr:housenumber": "3568",
    "addr:postcode": "92025",
    "addr:street": "Grove Canyon Road",
    "source": "SanGIS Addresses Public Domain (http://www.sangis.org/)"
  }
},
{
  "type": "node",
  "id": 596441497,
  "lat": 32.5701770,
  "lon": -117.0588670,
  "tags": {
    "addr:city": "San Diego",
    "addr:country": "US",
    "addr:housenumber": "3565",
    "addr:postcode": "92154",
    "addr:street": "Marzo Street",
    "source": "SanGIS Addresses Public Domain (http://www.sangis.org/)"
  }
},
{
  "type": "node",
  "id": 596443544,
  "lat": 32.8389460,
  "lon": -116.7420900,
  "tags": {
    "addr:country": "US",
    "addr:housenumber": "3562",
    "addr:street": "Fazio Road",
    "source": "SanGIS Addresses Public Domain (http://www.sangis.org/)"
  }
},
{
  "type": "node",
  "id": 596449039,
  "lat": 33.0622150,
  "lon": -117.0733760,
  "tags": {
    "addr:city": "Escondido",
    "addr:country": "US",
    "addr:housenumber": "3566",
    "addr:postcode": "92029",
    "addr:street": "Avenida Amorosa",
    "source": "SanGIS Addresses Public Domain (http://www.sangis.org/)"
  }
},
{
  "type": "node",
  "id": 596449753,
  "lat": 33.0652660,
  "lon": -117.2281270,
  "tags": {
    "addr:housenumber": "3563",
    "addr:street": "Avenida Pantera",
    "source": "SanGIS Addresses Public Domain (http://www.sangis.org/)"
  }
},
{
  "type": "node",
  "id": 596451111,
  "lat": 32.8053530,
  "lon": -117.2019530,
  "tags": {
    "addr:city": "San Diego",
    "addr:country": "US",
    "addr:housenumber": "3568",
    "addr:postcode": "92117",
    "addr:street": "Ottawa Avenue",
    "source": "SanGIS Addresses Public Domain (http://www.sangis.org/)"
  }
},
{
  "type": "node",
  "id": 596451405,
  "lat": 33.0405850,
  "lon": -117.2505990,
  "tags": {
    "addr:housenumber": "356",
    "addr:street": "Orwell Lane",
    "source": "SanGIS Addresses Public Domain (http://www.sangis.org/)"
  }
},
{
  "type": "node",
  "id": 596458201,
  "lat": 32.6374550,
  "lon": -117.0860340,
  "tags": {
    "addr:city": "Chula Vista",
    "addr:country": "US",
    "addr:housenumber": "356",
    "addr:postcode": "91910",
    "addr:street": "Brightwood Avenue",
    "source": "SanGIS Addresses Public Domain (http://www.sangis.org/)"
  }
},
{
  "type": "node",
  "id": 596458237,
  "lat": 32.8266770,
  "lon": -117.2092530,
  "tags": {
    "addr:city": "San Diego",
    "addr:country": "US",
    "addr:housenumber": "3569",
    "addr:postcode": "92117",
    "addr:street": "Jemez Drive",
    "source": "SanGIS Addresses Public Domain (http://www.sangis.org/)"
  }
},
{
  "type": "node",
  "id": 596458346,
  "lat": 32.7611160,
  "lon": -117.1160100,
  "tags": {
    "addr:city": "San Diego",
    "addr:country": "US",
    "addr:housenumber": "3560",
    "addr:postcode": "92116",
    "addr:street": "Madison Avenue",
    "source": "SanGIS Addresses Public Domain (http://www.sangis.org/)"
  }
},
{
  "type": "node",
  "id": 596458522,
  "lat": 32.7453760,
  "lon": -117.0585500,
  "tags": {
    "addr:city": "San Diego",
    "addr:country": "US",
    "addr:housenumber": "3565",
    "addr:postcode": "92115",
    "addr:street": "Sparling Street",
    "source": "SanGIS Addresses Public Domain (http://www.sangis.org/)"
  }
},
{
  "type": "node",
  "id": 596458881,
  "lat": 33.1709210,
  "lon": -117.2980340,
  "tags": {
    "addr:country": "US",
    "addr:housenumber": "3567",
    "addr:street": "Flat Rock Street",
    "source": "SanGIS Addresses Public Domain (http://www.sangis.org/)"
  }
},
{
  "type": "node",
  "id": 596459901,
  "lat": 32.7433470,
  "lon": -117.1085930,
  "tags": {
    "addr:city": "San Diego",
    "addr:country": "US",
    "addr:housenumber": "3562",
    "addr:postcode": "92105",
    "addr:street": "Central Avenue",
    "source": "SanGIS Addresses Public Domain (http://www.sangis.org/)"
  }
},
{
  "type": "node",
  "id": 596463336,
  "lat": 32.7432850,
  "lon": -117.0931050,
  "tags": {
    "addr:city": "San Diego",
    "addr:country": "US",
    "addr:housenumber": "3561",
    "addr:postcode": "92105",
    "addr:street": "47th Street",
    "source": "SanGIS Addresses Public Domain (http://www.sangis.org/)"
  }
},
{
  "type": "node",
  "id": 596465240,
  "lat": 33.2085680,
  "lon": -117.3415280,
  "tags": {
    "addr:city": "Oceanside",
    "addr:country": "US",
    "addr:housenumber": "3565",
    "addr:postcode": "92054",
    "addr:street": "Seafarer Drive",
    "source": "SanGIS Addresses Public Domain (http://www.sangis.org/)"
  }
},
{
  "type": "node",
  "id": 596469132,
  "lat": 32.7430860,
  "lon": -117.1220950,
  "tags": {
    "addr:city": "San Diego",
    "addr:country": "US",
    "addr:housenumber": "3560",
    "addr:postcode": "92104",
    "addr:street": "Felton Street",
    "source": "SanGIS Addresses Public Domain (http://www.sangis.org/)"
  }
},
{
  "type": "node",
  "id": 596469135,
  "lat": 33.3381850,
  "lon": -117.1867340,
  "tags": {
    "addr:city": "Fallbrook",
    "addr:country": "US",
    "addr:housenumber": "3561",
    "addr:postcode": "92028",
    "addr:street": "Northcliff Drive",
    "source": "SanGIS Addresses Public Domain (http://www.sangis.org/)"
  }
},
{
  "type": "node",
  "id": 596469531,
  "lat": 33.2093760,
  "lon": -117.3316150,
  "tags": {
    "addr:country": "US",
    "addr:housenumber": "3562",
    "addr:street": "Pear Blossom Circle",
    "source": "SanGIS Addresses Public Domain (http://www.sangis.org/)"
  }
},
{
  "type": "node",
  "id": 596476849,
  "lat": 32.9221120,
  "lon": -117.2343430,
  "tags": {
    "addr:city": "San Diego",
    "addr:housenumber": "3562",
    "addr:postcode": "92130",
    "addr:street": "Torrey View Court",
    "source": "SanGIS Addresses Public Domain (http://www.sangis.org/)"
  }
},
{
  "type": "node",
  "id": 596478828,
  "lat": 32.7434870,
  "lon": -117.1091130,
  "tags": {
    "addr:city": "San Diego",
    "addr:country": "US",
    "addr:housenumber": "3567",
    "addr:postcode": "92105",
    "addr:street": "40th Street",
    "source": "SanGIS Addresses Public Domain (http://www.sangis.org/)"
  }
},
{
  "type": "node",
  "id": 596479150,
  "lat": 32.8063460,
  "lon": -117.1870030,
  "tags": {
    "addr:city": "San Diego",
    "addr:country": "US",
    "addr:housenumber": "3564",
    "addr:postcode": "92111",
    "addr:state": "CA",
    "addr:street": "Mount Ariane Drive",
    "source": "SanGIS Addresses Public Domain (http://www.sangis.org/)"
  }
},
{
  "type": "node",
  "id": 596479255,
  "lat": 32.7701900,
  "lon": -117.1142920,
  "tags": {
    "addr:city": "San Diego",
    "addr:country": "US",
    "addr:housenumber": "3561",
    "addr:postcode": "92116",
    "addr:street": "Sydney Place",
    "source": "SanGIS Addresses Public Domain (http://www.sangis.org/)"
  }
},